[
  {
    "name": "1646 Experimental Art Space",
    "thumbnail": "https://cdn.museum.nl/assets/fb997193-8405-4b92-9144-ac11008c6337?w=420&h=280&c=2e2cce255973b5ba00107e777a33c5f49222f5944fab7e1855e5dd39f9562fd4",
    "link": "https://www.museum.nl/nl/1646-experimental-art-space",
    "location": "Boekhorststraat 125 2512 CN Den Haag",
    "latitude": 52.072799,
    "longitude": 4.3106096
  },
  {
    "name": "ABC Architectuurcentrum Haarlem",
    "thumbnail": "https://cdn.museum.nl/assets/4ffaf6d5-97fe-40aa-952a-3bba817c1cf6?w=420&h=280&c=95db81474fc03591a77444d405f55f4fdd49856b865a0c0851a2ff93ddf9fa27",
    "link": "https://www.museum.nl/nl/abc-architectuurcentrum-haarlem",
    "location": "Groot Heiligland 47 2011 EP Haarlem",
    "latitude": 52.3770879,
    "longitude": 4.6340556
  },
  {
    "name": "ANNO Stadsmuseum Zwolle",
    "thumbnail": "https://cdn.museum.nl/assets/b7409be7-c7c5-4b00-84aa-a34787eb673b?w=420&h=280&c=8c51e872baf9b38eb349d9f456c31b8e0464c8efe490ef656f498bfc56257216",
    "link": "https://www.museum.nl/nl/anno-stadsmuseum-zwolle",
    "location": "Melkmarkt 41 8011 MB Zwolle",
    "latitude": 52.512927,
    "longitude": 6.0908647
  },
  {
    "name": "ARTIS-Groote Museum",
    "thumbnail": "https://cdn.museum.nl/assets/ed9850e7-c47c-4783-9ada-8e8a7f44ea4d?w=420&h=280&c=214bfb3a9ea9b56d5f4400e02130978b824d64adb493cd3b201581445128289d",
    "link": "https://www.museum.nl/nl/artis-groote-museum",
    "location": "Plantage Middenlaan 41 1018 CZ Amsterdam",
    "latitude": 52.3660752,
    "longitude": 4.9134972
  },
  {
    "name": "ARTIS-Micropia",
    "thumbnail": "https://cdn.museum.nl/assets/4649b8cd-2f20-4e7d-b5a5-7a4901294923?w=420&h=280&c=b0bd8301c754a527da17047c0c3f5d7d16a1fa047d7468eb9f583792ffba4126",
    "link": "https://www.museum.nl/nl/artis-micropia",
    "location": "Plantage Kerklaan 38-40 1018 CZ Amsterdam",
    "latitude": 52.3662382,
    "longitude": 4.9165461
  },
  {
    "name": "Airborne Museum at Hartenstein",
    "thumbnail": "https://cdn.museum.nl/assets/084f3ae5-e682-4520-95fa-b3f372181dc4?w=420&h=280&c=ffc83eba0894724377a1d43d19a7a9017fef5c46aefd1c6c9f4f8b51eafb6dc1",
    "link": "https://www.museum.nl/nl/airborne-museum-at-hartenstein",
    "location": "Utrechtseweg 232 6862 AZ Oosterbeek",
    "latitude": 51.9877085,
    "longitude": 5.8326876
  },
  {
    "name": "Allard Pierson",
    "thumbnail": "https://cdn.museum.nl/assets/fa9d6d4d-de59-4f6a-b4dd-608f484db9ba?w=420&h=280&c=3d627b83b66939c06af36ab5face6c220558ce16b928e92649cbc440ccf54d77",
    "link": "https://www.museum.nl/nl/allard-pierson",
    "location": "Oude Turfmarkt 127 1012 GC Amsterdam",
    "latitude": 52.3688053,
    "longitude": 4.8930549
  },
  {
    "name": "Amsterdam Museum aan de Amstel",
    "thumbnail": "https://cdn.museum.nl/assets/7e162586-e933-4de7-b663-2e439dfa2dad?w=420&h=280&c=0ddda9ba124e719170997d210b73f8c8c77b642eada9eec7ad980c658ee1860c",
    "link": "https://www.museum.nl/nl/amsterdam-museum-aan-de-amstel",
    "location": "Amstel 51 1018 EJ Amsterdam",
    "latitude": 52.3656522,
    "longitude": 4.9022137
  },
  {
    "name": "Amsterdam Pipe Museum",
    "thumbnail": "https://cdn.museum.nl/assets/fdd72a53-9516-49d7-8514-b8e319ac162b?w=420&h=280&c=e464f5b2560901d29ce83fe968f8f3b9e0ebec02fe06ac916b418bb143740a9a",
    "link": "https://www.museum.nl/nl/amsterdam-pipe-museum",
    "location": "Prinsengracht 488 1017 KH Amsterdam",
    "latitude": 52.3641246,
    "longitude": 4.8853385
  },
  {
    "name": "Anne Frank Huis",
    "thumbnail": "https://cdn.museum.nl/assets/df6978fa-89ea-49e0-baf3-9f51dda3b15a?w=420&h=280&c=60aa86e4b459dd51bd5c51e3fca49584ce0f3d3e2fd24dd604da351451f5382e",
    "link": "https://www.museum.nl/nl/anne-frank-huis",
    "location": "Westermarkt 20 1016 DK Amsterdam",
    "latitude": 52.3749364,
    "longitude": 4.8843173
  },
  {
    "name": "Anton Pieck Museum",
    "thumbnail": "https://cdn.museum.nl/assets/2bd128d6-d65f-4e30-a5c3-9834ea2c8b6d?w=420&h=280&c=704d1b6ae8bde9b9c143c4ae3d7393d9184062be9b3c8372cbb4757ddaf20f58",
    "link": "https://www.museum.nl/nl/anton-pieck-museum",
    "location": "Noordwal 31 8051 ES Hattem",
    "latitude": 52.475454,
    "longitude": 6.0672388
  },
  {
    "name": "Bakkerijmuseum De Oude Bakkerij",
    "thumbnail": "https://cdn.museum.nl/assets/a7b5ef75-ef0c-45dd-b2ad-98ce7c13dc91?w=420&h=280&c=3e8a7683521f20e86cb5e67f8f0521926d315bfb6de0450497e4e6a43165af55",
    "link": "https://www.museum.nl/nl/bakkerijmuseum-de-oude-bakkerij",
    "location": "Nieuwstraat 8 1671 BD Medemblik",
    "latitude": 52.7732977,
    "longitude": 5.1061207
  },
  {
    "name": "Beeld & Geluid",
    "thumbnail": "https://cdn.museum.nl/assets/b72bdf3a-68bb-48a2-8685-a5fced496287?w=420&h=280&c=ea67871112570deacca3ad65bce18e80443c6d787a667f4aacd77b5696669602",
    "link": "https://www.museum.nl/nl/beeld-geluid",
    "location": "Media Parkboulevard 1 1217 WE Hilversum",
    "latitude": 52.2356788,
    "longitude": 5.1733122
  },
  {
    "name": "Beemster Museum",
    "thumbnail": "https://cdn.museum.nl/assets/296b45ce-7a1d-4666-9d36-91321d69526b?w=420&h=280&c=9f21ccbbbe4a5798eeef6517ff1dc179ad4b11febed20a53f6ac4c7fdba4d46a",
    "link": "https://www.museum.nl/nl/beemster-museum",
    "location": "Middenweg 185a 1462 HJ Middenbeemster",
    "latitude": 52.547624,
    "longitude": 4.9124125
  },
  {
    "name": "Belasting & Douane Museum",
    "thumbnail": "https://cdn.museum.nl/assets/fac90daa-3bad-48b9-afb7-ce14332ac1b1?w=420&h=280&c=eca176b1e31b17fe54707df5b70db492b8526f0da98064103a4aade0a5d4db00",
    "link": "https://www.museum.nl/nl/belasting-douane-museum",
    "location": "Parklaan 14-16 3016 BB Rotterdam",
    "latitude": 51.9076171,
    "longitude": 4.4764139
  },
  {
    "name": "Bergkerk",
    "thumbnail": "https://cdn.museum.nl/assets/19e64b71-84f1-40f7-91b9-7ae81e42ef2e?w=420&h=280&c=265cdcccbccb7e8c7a4a2aca8ce2e4ce6c23e5c765759fa1b8924427eae602a9",
    "link": "https://www.museum.nl/nl/bergkerk",
    "location": "Bergkerkplein  1 7411 EN Deventer",
    "latitude": 52.2517924,
    "longitude": 6.1628887
  },
  {
    "name": "Betje Wolff Museum",
    "thumbnail": "https://cdn.museum.nl/assets/45395df1-78a7-4e9a-bb9e-90b0fbbb0c83?w=420&h=280&c=7d7220e1c1467709ddf2f1580a2ccd70e75a96cd24f83513bf0e369b2c2cc146",
    "link": "https://www.museum.nl/nl/betje-wolff-museum",
    "location": "Middenweg 178 1462 HL Middenbeemster",
    "latitude": 52.5472751,
    "longitude": 4.9125103
  },
  {
    "name": "Bevrijdingsmuseum Zeeland",
    "thumbnail": "https://cdn.museum.nl/assets/8dbf9c72-d19c-4bf7-809e-17236a7041f9?w=420&h=280&c=40b2ee9c7378a36c2d546b44079ff6a193da97ce07846e9cbdbce64ad7901127",
    "link": "https://www.museum.nl/nl/bevrijdingsmuseum-zeeland",
    "location": "Coudorp 41 4455 AH Nieuwdorp (Borsele)",
    "latitude": 51.467784,
    "longitude": 3.7416534
  },
  {
    "name": "Biesbosch MuseumEiland",
    "thumbnail": "https://cdn.museum.nl/assets/5937b6b4-ccb7-4883-85e3-e7656b21c615?w=420&h=280&c=6658461fcfc54c994a0e9e2d6117e161b343e7b192dc5960743de3bed2483ffe",
    "link": "https://www.museum.nl/nl/biesbosch-museumeiland",
    "location": "Hilweg 2 4251 MT Werkendam",
    "latitude": 51.76529,
    "longitude": 4.7717919
  },
  {
    "name": "Boerderijmuseum De Bovenstreek",
    "thumbnail": "https://cdn.museum.nl/assets/62759652-2b99-41b5-8661-18b79b5be7ff?w=420&h=280&c=641243b9847890e2029dc4535065ae89130138ee14218436b33878421dfd34dc",
    "link": "https://www.museum.nl/nl/boerderijmuseum-de-bovenstreek",
    "location": "Bovenstraatweg 10A 8096 PE Oldebroek",
    "latitude": 52.4427054,
    "longitude": 5.9132968
  },
  {
    "name": "Bonnefanten",
    "thumbnail": "https://cdn.museum.nl/assets/2224bf59-94b2-41c0-ab5e-d02d2291b9fa?w=420&h=280&c=601ada14d711046824b9be7faac65a79a37f080864f0862ea7f2337430002e34",
    "link": "https://www.museum.nl/nl/bonnefanten",
    "location": "Avenue Ceramique 250 6221 KX Maastricht",
    "latitude": 50.8424797,
    "longitude": 5.701339
  },
  {
    "name": "Boomkwekerijmuseum",
    "thumbnail": "https://cdn.museum.nl/assets/2d40440c-5904-4418-8913-a33e8a4138db?w=420&h=280&c=f07cad09d2cee3006279a59f5c82da7f84def3fd3da65b4b60b485ce67ab3d92",
    "link": "https://www.museum.nl/nl/boomkwekerijmuseum",
    "location": "Reijerskoop 52-54 2771 BR Boskoop",
    "latitude": 52.0739267,
    "longitude": 4.6704894
  },
  {
    "name": "Botanische Tuin De Kruidhof",
    "thumbnail": "https://cdn.museum.nl/assets/8ec48689-3505-4556-8f4f-b500a9882816?w=420&h=280&c=2a5f867fee4a52e2a1203591757b2d75dde29fffcd84ce0d82305dc803af1348",
    "link": "https://www.museum.nl/nl/botanische-tuin-de-kruidhof",
    "location": "Schoolstraat 29B 9285 NE Buitenpost",
    "latitude": 53.2557012,
    "longitude": 6.1370439
  },
  {
    "name": "Botanische Tuin Kerkrade",
    "thumbnail": "https://cdn.museum.nl/assets/cce86f60-2207-4e88-9fb8-8efa90a188a6?w=420&h=280&c=8b458873772265c5baf1f848b8f3446f16843afe86f84b6c4f2e9adc917a43a7",
    "link": "https://www.museum.nl/nl/botanische-tuin-kerkrade",
    "location": "St. Hubertuslaan 74 6467 CK Kerkrade",
    "latitude": 50.8671092,
    "longitude": 6.0280593
  },
  {
    "name": "Botanische Tuinen Universiteit Utrecht",
    "thumbnail": "https://cdn.museum.nl/assets/4f16ebce-a48e-459f-972c-ade04cda4ef4?w=420&h=280&c=94fa464643c92d567c46182fc4d8e6ab463b9132d257898a05c8377d64e01953",
    "link": "https://www.museum.nl/nl/botanische-tuinen-universiteit-utrecht",
    "location": "Budapestlaan 17 3584 CD Utrecht",
    "latitude": 52.0879808,
    "longitude": 5.1690722
  },
  {
    "name": "Brabants Museum Oud Oosterhout",
    "thumbnail": "https://cdn.museum.nl/assets/43c9b050-8b38-456e-a1c7-d7b49d827e39?w=420&h=280&c=78f7d23ff29a572c869f5ccf0b71aecb7131408b8ebcb89db7843c5bae8fea57",
    "link": "https://www.museum.nl/nl/brabants-museum-oud-oosterhout",
    "location": "Bredaseweg 129 4904 SB Oosterhout",
    "latitude": 51.6316875,
    "longitude": 4.8420025
  },
  {
    "name": "Brandweermuseum Hellevoetsluis",
    "thumbnail": "https://cdn.museum.nl/assets/9e15b195-ec83-453d-afcb-a404a5d72797?w=420&h=280&c=00acf16c95e77f4e9770e8e71b307f13ba78080a105b4e002f9c34fee2168ebc",
    "link": "https://www.museum.nl/nl/brandweermuseum-hellevoetsluis",
    "location": "Industriehaven 8 3221 AD Hellevoetsluis",
    "latitude": 51.8249413,
    "longitude": 4.1300842
  },
  {
    "name": "Brutus",
    "thumbnail": "https://cdn.museum.nl/assets/0b142acc-ecb4-49d2-94d1-fd176995b899?w=420&h=280&c=5caa4548f238300dc3c11d4d62b30f9f157e281eb7097a2cbf84ee1a83081a03",
    "link": "https://www.museum.nl/nl/brutus",
    "location": "Keileweg 10B 3029 BS Rotterdam",
    "latitude": 51.9095422,
    "longitude": 4.4320312
  },
  {
    "name": "Buitenplaats Kasteel Wijlre",
    "thumbnail": "https://cdn.museum.nl/assets/cfe4df73-825b-49da-bca7-70be889f3b3d?w=420&h=280&c=190392cb7f8527cdb77f02cab0274cf4611b3df79b2dbcac77c71d099d6d4fa9",
    "link": "https://www.museum.nl/nl/buitenplaats-kasteel-wijlre",
    "location": "Kerkpad / In de Beemden  1 6321 PX Wijlre",
    "latitude": null,
    "longitude": null
  },
  {
    "name": "Bureau Europa",
    "thumbnail": "https://cdn.museum.nl/assets/c939cf52-4d22-46e0-b645-7cb2a9e9e38a?w=420&h=280&c=ea3bf7a2d66269c797f2b84f55b49e5807eae27413e7d7abdcb11087817e7866",
    "link": "https://www.museum.nl/nl/bureau-europa",
    "location": "Boschstraat 9 6211 AS Maastricht",
    "latitude": 50.8567335,
    "longitude": 5.6902773
  },
  {
    "name": "CODA",
    "thumbnail": "https://cdn.museum.nl/assets/ac66c47a-3da9-4d56-8442-785c7024eaa6?w=420&h=280&c=c633b71529cc76699737bd7622d865adcd3f77b6a435786868b6940bd4eab817",
    "link": "https://www.museum.nl/nl/coda",
    "location": "Vosselmanstraat 299 7311 CL Apeldoorn",
    "latitude": 52.2153522,
    "longitude": 5.9583653
  },
  {
    "name": "Centraal Museum",
    "thumbnail": "https://cdn.museum.nl/assets/86c3dc01-01c3-408b-adfa-4728e9e8beab?w=420&h=280&c=f839e7d860b9377fa93d9ed17daac89c27266277f7ab917bf8d0befe8f7e2cf6",
    "link": "https://www.museum.nl/nl/centraal-museum",
    "location": "Agnietenstraat 1 3512 XA Utrecht",
    "latitude": 52.0836118,
    "longitude": 5.1256638
  },
  {
    "name": "Chabot Museum",
    "thumbnail": "https://cdn.museum.nl/assets/9a75ed25-49eb-4f1d-9bbb-9446a10ba6cd?w=420&h=280&c=89e1cf0ec0712dee98dc00e2814dd831988b0be6dd4cd5855b1d3899ce303f74",
    "link": "https://www.museum.nl/nl/chabot-museum",
    "location": "Museumpark 11 3015 CB Rotterdam",
    "latitude": 51.9147354,
    "longitude": 4.4723363
  },
  {
    "name": "Comenius Museum",
    "thumbnail": "https://cdn.museum.nl/assets/e822cdd5-0d80-4a55-abc6-7344b8e32eed?w=420&h=280&c=8cfa5d51e38aaec5bf3fa48a13b01d1a443333098ae495ac05624a5cb6cf6def",
    "link": "https://www.museum.nl/nl/comenius-museum",
    "location": "Kloosterstraat 33 1411 RS Naarden",
    "latitude": 52.2972752,
    "longitude": 5.1643657
  },
  {
    "name": "Cruquius Museum",
    "thumbnail": "https://cdn.museum.nl/assets/65270185-832d-4203-910b-e626ff619ec0?w=420&h=280&c=2a7ee8664ac3137c8b04aabdb732cf25348ab856cf77cc33350be7f01099bb40",
    "link": "https://www.museum.nl/nl/cruquius-museum",
    "location": "Cruquiusdijk 27 2142 ER Cruquius",
    "latitude": 52.3381986,
    "longitude": 4.6380917
  },
  {
    "name": "Cultuur-Historisch Museum Sorgdrager",
    "thumbnail": "https://cdn.museum.nl/assets/ec8f6d97-0f9f-4c19-a897-56caf70552a0?w=420&h=280&c=f9b699466ed0030c77da8cc4053f1a649a0267b52388cdce12203674d990d726",
    "link": "https://www.museum.nl/nl/cultuur-historisch-museum-sorgdrager",
    "location": "Herenweg 1 9161 AM Hollum-Ameland",
    "latitude": 53.4379894,
    "longitude": 5.641203
  },
  {
    "name": "Cultuurforum Aardenburg",
    "thumbnail": "https://cdn.museum.nl/assets/880917db-5085-41ef-a060-ee00610bc8c5?w=420&h=280&c=6926dd0c38d95ffe73a92ae70bcee7c7abefec8e2180693cb1fa2a9b389e4d76",
    "link": "https://www.museum.nl/nl/cultuurforum-aardenburg",
    "location": "Sint Bavostraat 3 4527 CJ Aardenburg",
    "latitude": 51.2735607,
    "longitude": 3.4487429
  },
  {
    "name": "Czaar Peterhuisje",
    "thumbnail": "https://cdn.museum.nl/assets/e36e32f9-ac06-41a1-9aad-baa7e3325a83?w=420&h=280&c=51677cd804572552024680e3b0fe3c7d9c029cddd9fa945628ae46415cb249f9",
    "link": "https://www.museum.nl/nl/czaar-peterhuisje",
    "location": "Krimp 23 1506 AA Zaandam",
    "latitude": 52.4373236,
    "longitude": 4.8234176
  },
  {
    "name": "DAF Museum",
    "thumbnail": "https://cdn.museum.nl/assets/76f309f6-c15c-405e-ac21-63505d65d6dc?w=420&h=280&c=3b6132c2f263e58605b281128308e52bb6b50bdec242ea563ac345138a00a58d",
    "link": "https://www.museum.nl/nl/daf-museum",
    "location": "Tongelresestraat 27 5613 DA Eindhoven",
    "latitude": 51.4373178,
    "longitude": 5.4905917
  },
  {
    "name": "De Appel",
    "thumbnail": "https://cdn.museum.nl/assets/1f4d4014-6724-409e-92a7-22184062f194?w=420&h=280&c=0ac6051f35ea83288567b18e82de6504f13f3bb16933a2a82525970ecab3bcf0",
    "link": "https://www.museum.nl/nl/de-appel",
    "location": "Tolstraat 160 1074 VM Amsterdam",
    "latitude": 52.3526278,
    "longitude": 4.9063207
  },
  {
    "name": "De Casteelse Poort",
    "thumbnail": "https://cdn.museum.nl/assets/026a7db6-98fe-45c9-b41e-8ef8276ba2be?w=420&h=280&c=b4d9c58da9dfdf668cb4b9f8b654a07fe7f45be9bd11f40c752dab3e870a6d4a",
    "link": "https://www.museum.nl/nl/de-casteelse-poort",
    "location": "Bowlespark 1a 6701 DN Wageningen",
    "latitude": 51.9647918,
    "longitude": 5.6656787
  },
  {
    "name": "De Fraeylemaborg",
    "thumbnail": "https://cdn.museum.nl/assets/95ee7169-8231-419f-bb1c-a98492599caa?w=420&h=280&c=5a1d19983aa2d1ee82c8a42bdc68dfd34fe16e4940e527256930889bd1423e92",
    "link": "https://www.museum.nl/nl/de-fraeylemaborg",
    "location": "Hoofdweg 30 9621 AL Slochteren",
    "latitude": 53.2154609,
    "longitude": 6.8095705
  },
  {
    "name": "De Glasblazerij",
    "thumbnail": "https://cdn.museum.nl/assets/4f370994-ee6e-40fb-b8e7-1a031505d286?w=420&h=280&c=6f880e3049ab715eb214a9ff60012856d8ecd066ba565a1e1bbee70f4f36be5d",
    "link": "https://www.museum.nl/nl/de-glasblazerij",
    "location": "Sundsvall 2 4141 MP Leerdam",
    "latitude": 51.8902402,
    "longitude": 5.0954712
  },
  {
    "name": "De Hollandsche Manege",
    "thumbnail": "https://cdn.museum.nl/assets/81ee0127-1425-40e3-91eb-6eff8f0c7b8a?w=420&h=280&c=f7491701cac846f58ec9d787512e66e4e8a28f70633b8968e0c08966b1caf416",
    "link": "https://www.museum.nl/nl/de-hollandsche-manege",
    "location": "Vondelstraat  140 1054 GT Amsterdam",
    "latitude": 52.3613725,
    "longitude": 4.871854
  },
  {
    "name": "De Hollandsche Schouwburg",
    "thumbnail": "https://cdn.museum.nl/assets/576fbe44-bb98-4a15-b358-42793ce155fb?w=420&h=280&c=544b91f480f3be804aa23d1b81702965d279c12b748c70b627cba84b1b76497f",
    "link": "https://www.museum.nl/nl/de-hollandsche-schouwburg",
    "location": "Plantage Middenlaan 24 1018 DE Amsterdam",
    "latitude": 52.3664388,
    "longitude": 4.911154
  },
  {
    "name": "De Kuiperij",
    "thumbnail": "https://cdn.museum.nl/assets/5d4417cc-bb57-4184-8513-927cb079f4f4?w=420&h=280&c=ce27f7666a87790c7076123b0a80fb2fc05712433bbe59c1be3c05f77f9fce43",
    "link": "https://www.museum.nl/nl/de-kuiperij",
    "location": "Schansend 7 1509 AW Zaandam",
    "latitude": 52.4735241,
    "longitude": 4.8223781
  },
  {
    "name": "De Looierij",
    "thumbnail": "https://cdn.museum.nl/assets/48251a2b-4d65-446b-832e-86e566e1937c?w=420&h=280&c=33cba700c088779ab882b751392afed1d298b2187b6a481494bb08f62717c0a4",
    "link": "https://www.museum.nl/nl/de-looierij",
    "location": "Kerkstraat 33 5101 BB Dongen",
    "latitude": 51.6237313,
    "longitude": 4.9331497
  },
  {
    "name": "De Mesdag Collectie",
    "thumbnail": "https://cdn.museum.nl/assets/53cbe080-11ff-4ad1-a9fd-1b78d6b3a5a2?w=420&h=280&c=f03f20d87e2fb1cc1b15002b5c14c7449f6675257a386cfb626514a4118b8a29",
    "link": "https://www.museum.nl/nl/de-mesdag-collectie",
    "location": "Laan van Meerdervoort 7f 2517 AB Den Haag",
    "latitude": 52.0859703,
    "longitude": 4.2975548
  },
  {
    "name": "De Museumfabriek Enschede",
    "thumbnail": "https://cdn.museum.nl/assets/a9a1286b-d875-47e4-a646-ae1358e05e6d?w=420&h=280&c=2d12323b7b1eda46efe44148bdad1114ad0d82e907f86309fbb7da9ae25fb3cc",
    "link": "https://www.museum.nl/nl/de-museumfabriek-enschede",
    "location": "Het Rozendaal 11 7523 XG Enschede",
    "latitude": 52.2324201,
    "longitude": 6.8947934
  },
  {
    "name": "De Nieuwe Kerk",
    "thumbnail": "https://cdn.museum.nl/assets/0687245e-5d71-40ee-b6b4-13db8f436e3b?w=420&h=280&c=2fcd59a602a12770a61c8b95140ad54bc24a74776c8c1fe14d06a6a9c856937a",
    "link": "https://www.museum.nl/nl/de-nieuwe-kerk",
    "location": "Dam 1012 NP Amsterdam",
    "latitude": 52.3731162,
    "longitude": 4.8923511
  },
  {
    "name": "De Pont museum",
    "thumbnail": "https://cdn.museum.nl/assets/c7f49588-82a6-47bf-952e-d6c82206c444?w=420&h=280&c=5176ff3fd0c80f696fbf25e203b3fee84c944a9fd3673cea9e9e1cc6338acfc3",
    "link": "https://www.museum.nl/nl/de-pont-museum",
    "location": "Wilhelminapark 1 5041 EA Tilburg",
    "latitude": 51.5673038,
    "longitude": 5.0745193
  },
  {
    "name": "De Statenpoort",
    "thumbnail": "https://cdn.museum.nl/assets/3683edff-19b6-4781-82db-0beee142a260?w=420&h=280&c=0c1babea0d2a0deb64ea3db5a632759fd5f55cafdca179316bc4ceb6fe30a029",
    "link": "https://www.museum.nl/nl/de-statenpoort",
    "location": "Nieuwstraat 23 1621 EA Hoorn",
    "latitude": 52.6414239,
    "longitude": 5.0598791
  },
  {
    "name": "Design Museum Den Bosch",
    "thumbnail": "https://cdn.museum.nl/assets/7bbdfa3a-e526-4adf-b05a-28ae8bb5c4b3?w=420&h=280&c=ec27284ca1a62058f7aa1e02edf0a1d0cc899995d44e30bffc5e6e2feacc32e1",
    "link": "https://www.museum.nl/nl/design-museum-den-bosch",
    "location": "De Mortel 4 5211 HV Den Bosch",
    "latitude": 51.6857426,
    "longitude": 5.3041697
  },
  {
    "name": "Diamant Museum Amsterdam",
    "thumbnail": "https://cdn.museum.nl/assets/07f6cce7-6e66-454f-b8a1-5735559dc252?w=420&h=280&c=32b0bb1f0330ccae542b99001ed2dfd8392940ef526f2193c55ca85c0190fcf9",
    "link": "https://www.museum.nl/nl/diamant-museum-amsterdam",
    "location": "Paulus Potterstraat 8 1071 CZ Amsterdam",
    "latitude": 52.3594104,
    "longitude": 4.8825054
  },
  {
    "name": "Discovery Museum",
    "thumbnail": "https://cdn.museum.nl/assets/334833dd-13cb-411d-8104-7b515debae04?w=420&h=280&c=a2398268fb4ca2775ac766bfc19cc7118fe24e8d42514728100f1ceafe93e054",
    "link": "https://www.museum.nl/nl/discovery-museum",
    "location": "Museumplein 2 6461 MA Kerkrade",
    "latitude": 50.8611312,
    "longitude": 6.0584628
  },
  {
    "name": "Dolhuys | Museum van de geest",
    "thumbnail": "https://cdn.museum.nl/assets/a8bf5f07-40a7-4b0f-a434-5b8e0839b445?w=420&h=280&c=ab65be10b2675ff62d95500967aa48978aa3022b82573a8f9e057e3d6b52e9ea",
    "link": "https://www.museum.nl/nl/dolhuys-museum-van-de-geest",
    "location": "Schotersingel 2 2021 GE Haarlem",
    "latitude": 52.3905413,
    "longitude": 4.637786
  },
  {
    "name": "Dordrechts Museum",
    "thumbnail": "https://cdn.museum.nl/assets/ccd31773-1334-4b4d-8763-85f9972a7827?w=420&h=280&c=3e2b2a8c4f9eb85815c6d02d0b7a616b53ea8df277cfaa2b9bbb432608cb620b",
    "link": "https://www.museum.nl/nl/dordrechts-museum",
    "location": "Museumstraat 40 3311 XP Dordrecht",
    "latitude": 51.8141201,
    "longitude": 4.6721539
  },
  {
    "name": "Drawing Centre Diepenheim",
    "thumbnail": "https://cdn.museum.nl/assets/3ff8f3db-6e29-4232-a25b-070f8f656559?w=420&h=280&c=0749e9d1b31ca3653eb1e10cca5b2320aa011999257fe1a18ec2f920834c089a",
    "link": "https://www.museum.nl/nl/drawing-centre-diepenheim",
    "location": "Grotestraat 17 7478 AA Diepenheim",
    "latitude": 52.2006616,
    "longitude": 6.5504021
  },
  {
    "name": "Drents Museum",
    "thumbnail": "https://cdn.museum.nl/assets/c89f383e-7670-4f98-8f52-13c397c41d9b?w=420&h=280&c=624f4cdcb971e99bdcb0a867b1faf5b4acf86849fd8dca374f7e6306480cd8fc",
    "link": "https://www.museum.nl/nl/drents-museum",
    "location": "Brink 1 9401 HS Assen",
    "latitude": 52.9928958,
    "longitude": 6.5642603
  },
  {
    "name": "Drents Museum De Buitenplaats",
    "thumbnail": "https://cdn.museum.nl/assets/eeca89cd-d9d0-4fe6-9d0b-25385668b691?w=420&h=280&c=dd54c67fb35d14be07ab7734d6e498ef4493ecaf87bdd0819a9f735af2461d33",
    "link": "https://www.museum.nl/nl/drents-museum-de-buitenplaats",
    "location": "Hoofdweg 76 9761 EK Eelde",
    "latitude": 53.1333908,
    "longitude": 6.5635436
  },
  {
    "name": "Drukkerijmuseum Meppel",
    "thumbnail": "https://cdn.museum.nl/assets/aa476dc1-7649-44ee-b739-252d3e34217a?w=420&h=280&c=6521820572106e29e1ae3a97ec2235c312374c7a104a9673ce343c1b0a87dc52",
    "link": "https://www.museum.nl/nl/drukkerijmuseum-meppel",
    "location": "Kleine Oever 11 7941 BK Meppel",
    "latitude": 52.6965555,
    "longitude": 6.1889716
  },
  {
    "name": "Edams Museum",
    "thumbnail": "https://cdn.museum.nl/assets/4c87e861-4590-445b-ad98-f64c75b4ec96?w=420&h=280&c=5723c5eec2231acfc9331f8c05623c07e2597e9359086572cfa69de78d53051e",
    "link": "https://www.museum.nl/nl/edams-museum",
    "location": "Damplein 8 1135 BK Edam",
    "latitude": 52.51265,
    "longitude": 5.0490749
  },
  {
    "name": "Elisabeth Weeshuis Museum",
    "thumbnail": "https://cdn.museum.nl/assets/0e4958d9-7dff-48f2-8bbe-96df8f2676d6?w=420&h=280&c=330d569a398281582a53a28bd735061d634302467e68f25f7593a4adcbcef54a",
    "link": "https://www.museum.nl/nl/elisabeth-weeshuis-museum",
    "location": "Herenstraat 29 4101 BR Culemborg",
    "latitude": 51.9574438,
    "longitude": 5.223026
  },
  {
    "name": "Elleboogkerk",
    "thumbnail": "https://cdn.museum.nl/assets/d8b7c8be-dff3-4764-a00a-9d2c4437f1b4?w=420&h=280&c=3fc2a1aa5c9321886503e51520e1c9efab2571669d10f1a84c55cd3d072f18e0",
    "link": "https://www.museum.nl/nl/elleboogkerk",
    "location": "Langegracht 36 3811 BW Amersfoort",
    "latitude": 52.1573309,
    "longitude": 5.3870371
  },
  {
    "name": "Embassy of the Free Mind",
    "thumbnail": "https://cdn.museum.nl/assets/ab2d1bd3-83dc-4e59-a391-e3f4d284f4b9?w=420&h=280&c=691a54b70471aafc82cc25964fc09d8c1bdb2de24522053b9496b544deed1438",
    "link": "https://www.museum.nl/nl/embassy-of-the-free-mind",
    "location": "Keizersgracht 123 1015 CJ Amsterdam",
    "latitude": 52.376342,
    "longitude": 4.8874494
  },
  {
    "name": "Eusebiuskerk Arnhem",
    "thumbnail": "https://cdn.museum.nl/assets/c52f8d0f-4912-47cb-b7b1-21c876cb09be?w=420&h=280&c=d0f5c9c5c472968c277a72f90b15aeee22bbb7a5125d74ffe3eae31fb59cd688",
    "link": "https://www.museum.nl/nl/eusebiuskerk-arnhem",
    "location": "Kerkplein 1 6811 EB Arnhem",
    "latitude": 51.9790578,
    "longitude": 5.9096488
  },
  {
    "name": "Eye Filmmuseum",
    "thumbnail": "https://cdn.museum.nl/assets/cadc79bc-5446-448a-ac5a-82271fc48d3a?w=420&h=280&c=f90eb49bb3531a9a4a23d48b6910528b91c887034953fa88972d843bae5e2b37",
    "link": "https://www.museum.nl/nl/eye-filmmuseum",
    "location": "IJpromenade 1 1031 KT Amsterdam",
    "latitude": 52.384335,
    "longitude": 4.900812
  },
  {
    "name": "Feyenoord Museum",
    "thumbnail": "https://cdn.museum.nl/assets/bac4b335-47b2-4acc-a58d-d1d9d558e982?w=420&h=280&c=41708a95e0f4ca1110eeb1552efe4af8da0079629bb9e992205aab2e4e2e76ff",
    "link": "https://www.museum.nl/nl/feyenoord-museum",
    "location": "Van Zandvlietplein 1 3077 AA Rotterdam",
    "latitude": 51.8943364,
    "longitude": 4.5246984
  },
  {
    "name": "Flessenscheepjesmuseum",
    "thumbnail": "https://cdn.museum.nl/assets/7d4b1feb-bfc4-45e9-9dc0-2f4a7d67c74d?w=420&h=280&c=408cd27baaea27d81d2564c1b235c391b7a8b2b3f1e5389916ac8a89965be141",
    "link": "https://www.museum.nl/nl/flessenscheepjesmuseum",
    "location": "Zuiderspui  1 1602 GH Enkhuizen",
    "latitude": 52.7008579,
    "longitude": 5.2938915
  },
  {
    "name": "Flipje en Streekmuseum Tiel",
    "thumbnail": "https://cdn.museum.nl/assets/39e81639-2f1a-4e62-8a56-4cd3f67e2b40?w=420&h=280&c=4f59d31686a7b627fae4c1c2adf52f6c8e11e51ae86faaceed863ce0fb2b664a",
    "link": "https://www.museum.nl/nl/flipje-en-streekmuseum-tiel",
    "location": "Plein 48 4001 LJ Tiel",
    "latitude": 51.8864658,
    "longitude": 5.4397772
  },
  {
    "name": "Florence Nightingale Instituut",
    "thumbnail": "https://cdn.museum.nl/assets/2a062429-f1d2-401d-8dd4-0d6f54cfe9b1?w=420&h=280&c=394af7174d9bedd7c38f59d15e142e15590c3d66478a8386330b501eea1ea815",
    "link": "https://www.museum.nl/nl/florence-nightingale-instituut",
    "location": "Industrieweg 6j 4104 AR Culemborg",
    "latitude": 51.9424883,
    "longitude": 5.2219643
  },
  {
    "name": "Foam Fotografiemuseum Amsterdam",
    "thumbnail": "https://cdn.museum.nl/assets/912d612e-66aa-4346-be4b-ec186e5ab44b?w=420&h=280&c=874c85836e689820d850445f25f9c1cd87a3ffd57eae626ee8ec38ee41611872",
    "link": "https://www.museum.nl/nl/foam-fotografiemuseum-amsterdam",
    "location": "Keizersgracht 609 1017 DS Amsterdam",
    "latitude": 52.3639884,
    "longitude": 4.8932631
  },
  {
    "name": "Forteiland Pampus",
    "thumbnail": "https://cdn.museum.nl/assets/8cf1ba59-60c2-49f2-9d33-3592fc069116?w=420&h=280&c=6093bf80c8bc89977a3d15ab3ebe77c258006000fe3a1c08be755692f317ba19",
    "link": "https://www.museum.nl/nl/forteiland-pampus",
    "location": "Fort Pampus 1 1398 PX Muiden",
    "latitude": null,
    "longitude": null
  },
  {
    "name": "Fortresse Holland Openluchtmuseum Hellevoetsluis",
    "thumbnail": "https://cdn.museum.nl/assets/2a983bff-1ceb-4866-b240-c4fc8973745c?w=420&h=280&c=03f44b430c9ad3ef5ba39a0388b3a49e5d348d6917aaeb99d675a1f6ca0c5938",
    "link": "https://www.museum.nl/nl/fortresse-holland-openluchtmuseum-hellevoetsluis",
    "location": "Dokweg 5 3221 AE Hellevoetsluis",
    "latitude": 51.8288357,
    "longitude": 4.1281958
  },
  {
    "name": "Forum Groningen | Expositie",
    "thumbnail": "https://cdn.museum.nl/assets/75bcf785-77f9-478b-9b3d-f7e7424877e8?w=420&h=280&c=8ccf32d09dc63985ad2e27dac227325cae50027910c16367cc4471b06c0e1cec",
    "link": "https://www.museum.nl/nl/forum-groningen-expositie",
    "location": "Nieuwe Markt 1 9712 KN Groningen",
    "latitude": 53.2188833,
    "longitude": 6.5697815
  },
  {
    "name": "Fotomuseum Den Haag",
    "thumbnail": "https://cdn.museum.nl/assets/5914bf51-ca75-49d7-9366-c680e967c5cc?w=420&h=280&c=6caa0789186f88a14949f796b17920e766591da0ebf2b429e012bbd99c03fca2",
    "link": "https://www.museum.nl/nl/fotomuseum-den-haag",
    "location": "Stadhouderslaan 43 2517 HV Den Haag",
    "latitude": 52.0904195,
    "longitude": 4.2796643
  },
  {
    "name": "Fotomuseum aan het Vrijthof",
    "thumbnail": "https://cdn.museum.nl/assets/32db2fa6-76cb-4370-bed5-42a469deaa26?w=420&h=280&c=f33fb926ed3cfe7b9f8affbceb7c35391e7252555ae341e5bdbae6aeea138d5b",
    "link": "https://www.museum.nl/nl/fotomuseum-aan-het-vrijthof",
    "location": "Vrijthof 18 6211 LD Maastricht",
    "latitude": 50.8483543,
    "longitude": 5.6887551
  },
  {
    "name": "Frans Hals Museum",
    "thumbnail": "https://cdn.museum.nl/assets/ed19dafa-d652-4ae5-ae47-97460c1769a6?w=420&h=280&c=f2dbc8b7d5bed59d9139f48e2ea8d5d615755329554f3bc4584331d4ec3884f5",
    "link": "https://www.museum.nl/nl/frans-hals-museum",
    "location": "Groot Heiligland 62 2011 ES Haarlem",
    "latitude": 52.3766062,
    "longitude": 4.6336897
  },
  {
    "name": "Fries Landbouwmuseum",
    "thumbnail": "https://cdn.museum.nl/assets/2567d290-90c0-4e90-bc79-124a16a32287?w=420&h=280&c=6d23d50f759bcc1f7e03f6bff9c32cd7298fd78a60f996ff193e515f69f9d283",
    "link": "https://www.museum.nl/nl/fries-landbouwmuseum",
    "location": "Felling 6 8912 CG Leeuwarden",
    "latitude": 53.1792965,
    "longitude": 5.7895453
  },
  {
    "name": "Fries Museum",
    "thumbnail": "https://cdn.museum.nl/assets/592bb1f4-327c-4eb8-b1e5-1bca2f6837c8?w=420&h=280&c=87823e643e9cd2873ac8098025bbf580eb35fe0b12fea8242909e7976212119b",
    "link": "https://www.museum.nl/nl/fries-museum",
    "location": "Wilhelminaplein 92 8911 BS Leeuwarden",
    "latitude": 53.1994527,
    "longitude": 5.7943483
  },
  {
    "name": "Fries Scheepvaart Museum",
    "thumbnail": "https://cdn.museum.nl/assets/37a97198-1b32-42bc-9dfc-28576c6c4e3d?w=420&h=280&c=f364fb86714a61393a7130dcc2a3ad8828046e4553d35b0189943ef8732e72c3",
    "link": "https://www.museum.nl/nl/fries-scheepvaart-museum",
    "location": "Kleinzand 16 8601 BH Sneek",
    "latitude": 53.0323511,
    "longitude": 5.6632657
  },
  {
    "name": "Fries Verzetsmuseum",
    "thumbnail": "https://cdn.museum.nl/assets/6805c981-f7c5-4345-9f0c-e7e69c551210?w=420&h=280&c=fd15da389c3be59e66be5bd855a5e5e8010c371e7620eabbeaf4c189ebc4c6f6",
    "link": "https://www.museum.nl/nl/fries-verzetsmuseum",
    "location": "Wilhelminaplein 92 8911 BS Leeuwarden",
    "latitude": 53.1994527,
    "longitude": 5.7943483
  },
  {
    "name": "GRID Grafisch Museum Groningen - Tijdelijk gesloten",
    "thumbnail": "https://cdn.museum.nl/assets/c031ddc9-3d58-4156-9c5b-41e788731a32?w=420&h=280&c=a089cbe6a597f5d8db23a2f3679435def93028acd458bc0c3ed7ab2f0079c52a",
    "link": "https://www.museum.nl/nl/grid-grafisch-museum-groningen-tijdelijk-gesloten",
    "location": "Sint Jansstraat 2 9712 JN Groningen",
    "latitude": 53.2196423,
    "longitude": 6.5702389
  },
  {
    "name": "Galerij Prins Willem V",
    "thumbnail": "https://cdn.museum.nl/assets/8d815ae7-31fc-422a-a805-154609b540d4?w=420&h=280&c=ad52da707414b39077aa861af0e1b2cf804719e0f88e5f9bf8d49c2efc6302b1",
    "link": "https://www.museum.nl/nl/galerij-prins-willem-v",
    "location": "Buitenhof 33 2513 AH Den Haag",
    "latitude": 52.0795956,
    "longitude": 4.3102791
  },
  {
    "name": "Geert Groote Huis",
    "thumbnail": "https://cdn.museum.nl/assets/d1e2dbac-5e58-4140-bfdf-4f70a762e2cd?w=420&h=280&c=4d57cfafbe9f75f6898c988d8a46e9136721d9024a95b39ade2fad577863b28a",
    "link": "https://www.museum.nl/nl/geert-groote-huis",
    "location": "Lamme van Dieseplein 4 7411 LX Deventer",
    "latitude": 52.2534423,
    "longitude": 6.1563626
  },
  {
    "name": "Gelders Geologisch Museum",
    "thumbnail": "https://cdn.museum.nl/assets/ee6ab6af-b4ac-4b90-9e65-b8176de45ca3?w=420&h=280&c=72d83de4bc02a854e7a9cff0ee16e2c7fbe697b583bead9e5dcb31cdfba80a9b",
    "link": "https://www.museum.nl/nl/gelders-geologisch-museum",
    "location": "Parkstraat 32 6881 JG Velp",
    "latitude": 51.998442,
    "longitude": 5.9714645
  },
  {
    "name": "Geniemuseum",
    "thumbnail": "https://cdn.museum.nl/assets/eb71d38c-609e-46eb-bca9-e0fc7fb293be?w=420&h=280&c=aab787c16992f217029605d15842609c48b08efbc82a6810c55e750d17375b31",
    "link": "https://www.museum.nl/nl/geniemuseum",
    "location": "Van Brederodekazerne, Lunettenlaan 102 5263 NT Vught",
    "latitude": null,
    "longitude": null
  },
  {
    "name": "GeoFort",
    "thumbnail": "https://cdn.museum.nl/assets/15647063-d679-47a2-b637-bf4680d31098?w=420&h=280&c=32f303cbead7b5dbb74c8fc3f8d16bcd2ff7453d9994cf4b0dcaeb255d410bd0",
    "link": "https://www.museum.nl/nl/geofort",
    "location": "Nieuwe Steeg 74 4171 KG Herwijnen",
    "latitude": 51.8655475,
    "longitude": 5.1270472
  },
  {
    "name": "Geologisch Museum Hofland",
    "thumbnail": "https://cdn.museum.nl/assets/72bef307-5d15-46cd-a3b5-626846bbcabc?w=420&h=280&c=9119b019caac3736a8cac43f7b5af1f2dfeef6113fe524525c74aabb25407d9f",
    "link": "https://www.museum.nl/nl/geologisch-museum-hofland",
    "location": "Hilversumseweg 51 1251 EW Laren",
    "latitude": 52.2464277,
    "longitude": 5.2078097
  },
  {
    "name": "Gorcums Museum",
    "thumbnail": "https://cdn.museum.nl/assets/bc18a114-cbac-41e6-9cdf-a45e232e2094?w=420&h=280&c=8212d84cfb8cac56f5f7d40d2cd2bab067ee3f3769bf9f55ff69d66eab91a97a",
    "link": "https://www.museum.nl/nl/gorcums-museum",
    "location": "Grote Markt 17 4201 EB Gorinchem",
    "latitude": 51.8296559,
    "longitude": 4.9744042
  },
  {
    "name": "Grachtenmuseum Amsterdam",
    "thumbnail": "https://cdn.museum.nl/assets/eff94b90-f103-413f-bf3d-4f5fc363b14d?w=420&h=280&c=3a70d30f59b08e8b8447cdaade3bf8ba596e234e92e2c76aa12950f6b969ed8a",
    "link": "https://www.museum.nl/nl/grachtenmuseum-amsterdam",
    "location": "Herengracht 386 1016 CJ Amsterdam",
    "latitude": 52.3678867,
    "longitude": 4.8862747
  },
  {
    "name": "Grenslandmuseum Dinxperlo",
    "thumbnail": "https://cdn.museum.nl/assets/f31eaf7d-d8c5-426b-ae29-55d77bce5256?w=420&h=280&c=ba2e9c48c5ea97af33bf9776440fe7cf9a5123f1bda2182a64557860b13ee69c",
    "link": "https://www.museum.nl/nl/grenslandmuseum-dinxperlo",
    "location": "Markt 3 7091 CJ Dinxperlo",
    "latitude": 51.8613621,
    "longitude": 6.4878575
  },
  {
    "name": "Groninger Museum",
    "thumbnail": "https://cdn.museum.nl/assets/a04d3248-4ebf-4e1f-b37a-905a132094e6?w=420&h=280&c=c0108d33fec5f63e5026947e9390cf2294a6addc77f9aed9be251542115d5522",
    "link": "https://www.museum.nl/nl/groninger-museum",
    "location": "Museumeiland 1 9711 ME Groningen",
    "latitude": 53.2122819,
    "longitude": 6.566029
  },
  {
    "name": "Grote Kerk Alkmaar",
    "thumbnail": "https://cdn.museum.nl/assets/b8bef2b3-028f-4352-b8ac-fea46585e183?w=420&h=280&c=2b0d77c61645472d5fc21482c971e58678b4e704a528301122710d910541462b",
    "link": "https://www.museum.nl/nl/grote-kerk-alkmaar",
    "location": "Koorstraat 4A 1811 GP Alkmaar",
    "latitude": 52.6323989,
    "longitude": 4.7435038
  },
  {
    "name": "H'ART Museum",
    "thumbnail": "https://cdn.museum.nl/assets/c469b9e1-237f-4d39-8bf8-9fb1fadbe97b?w=420&h=280&c=1fce3a8a908326acc90acea480eba4d9e1701d60c706255932a5ea338618f3fe",
    "link": "https://www.museum.nl/nl/hart-museum",
    "location": "Amstel 51 1018 EJ Amsterdam",
    "latitude": 52.3656522,
    "longitude": 4.9022137
  },
  {
    "name": "Haags Historisch Museum",
    "thumbnail": "https://cdn.museum.nl/assets/0e136cd9-11dc-48d7-8c7c-9c56d41b8813?w=420&h=280&c=fe5d9ee6384f0c1e9a56ac164147679196af7a126f022460b26e96da1ce5fab0",
    "link": "https://www.museum.nl/nl/haags-historisch-museum",
    "location": "Korte Vijverberg 7 2513 AB 's-Gravenhage",
    "latitude": 52.0812305,
    "longitude": 4.3139606
  },
  {
    "name": "Hannemahuis",
    "thumbnail": "https://cdn.museum.nl/assets/9ef6835f-5d06-40c1-a910-3cc0165a0bf9?w=420&h=280&c=a2b6f1442017149d38d5fb15f6c3bd2dfec21123e4a48baa37f8b93739127345",
    "link": "https://www.museum.nl/nl/hannemahuis",
    "location": "Voorstraat 56 8861 BM Harlingen",
    "latitude": 53.1745805,
    "longitude": 5.4192419
  },
  {
    "name": "Heiligenbeeldenmuseum",
    "thumbnail": "https://cdn.museum.nl/assets/59c7cb86-698c-4bf4-9f28-60cd105f23db?w=420&h=280&c=70f8fe958189c80a9bf00a433f5636992b3325b9aa3e25d4fca84a51b229f595",
    "link": "https://www.museum.nl/nl/heiligenbeeldenmuseum",
    "location": "Ruurloseweg 101 7251 LD Vorden",
    "latitude": 52.1018528,
    "longitude": 6.3589746
  },
  {
    "name": "Hendrick Hamel Museum",
    "thumbnail": "https://cdn.museum.nl/assets/cf1627c2-02bd-400f-9785-9df3d26561bc?w=420&h=280&c=e27cdbc3b46d19833ff6e46adbce6d52e8c1d41854e8d1cb965d1ac2e846f73c",
    "link": "https://www.museum.nl/nl/hendrick-hamel-museum",
    "location": "Kortendijk 67 4201 KS Gorinchem",
    "latitude": 51.8314849,
    "longitude": 4.9765725
  },
  {
    "name": "Herinneringscentrum Kamp Westerbork",
    "thumbnail": "https://cdn.museum.nl/assets/13163c0a-96fd-4c42-9c76-576505f68f80?w=420&h=280&c=f3e703d7e229b7fda8a71ab9e0b4f909cf20f0c23ee1f003d8c6aee9b5a00182",
    "link": "https://www.museum.nl/nl/herinneringscentrum-kamp-westerbork",
    "location": "Oosthalen 8 9414 TG Hooghalen",
    "latitude": 52.9210762,
    "longitude": 6.5696979
  },
  {
    "name": "Het Cuypershuis",
    "thumbnail": "https://cdn.museum.nl/assets/7b7baacb-338f-4edd-971d-fac553ee971c?w=420&h=280&c=1c5ab0630b686396cff4ed0bf345441f776b734e263fc5c22c3a6003a4c415ec",
    "link": "https://www.museum.nl/nl/het-cuypershuis",
    "location": "Pierre Cuypersstraat 1 6041 XG Roermond",
    "latitude": 51.1882957,
    "longitude": 5.9882605
  },
  {
    "name": "Het Depot van Museum Boijmans Van Beuningen",
    "thumbnail": "https://cdn.museum.nl/assets/9f870554-2b4b-48b6-a875-b67ff3f43ea5?w=420&h=280&c=a1b65f7dfbe564cccbe0290ff4d6165fbc86672883fcef82de4a55609d49adfe",
    "link": "https://www.museum.nl/nl/het-depot-van-museum-boijmans-van-beuningen",
    "location": "Museumpark 24 3015 CX Rotterdam",
    "latitude": 51.9139529,
    "longitude": 4.471132
  },
  {
    "name": "Het Dordts PatriciÃ«rshuis",
    "thumbnail": "https://cdn.museum.nl/assets/e40a076e-996f-48f1-a65c-9865a68c4bc9?w=420&h=280&c=cce5a4b04630ba87e890f940e50e59fae46e56d1773ed06794ce54997ce9345a",
    "link": "https://www.museum.nl/nl/het-dordts-patriciershuis",
    "location": "Wolwevershaven 9 3311 AV Dordrecht",
    "latitude": 51.8190344,
    "longitude": 4.6672811
  },
  {
    "name": "Het Gouverneurshuis",
    "thumbnail": "https://cdn.museum.nl/assets/b0f57662-e698-454d-8921-1021e6d2d13b?w=420&h=280&c=92bd9ac919d5d855a34f72b0a36a705af9a7940da32e2b2932786a7c09cff062",
    "link": "https://www.museum.nl/nl/het-gouverneurshuis",
    "location": "Putterstraat 14 5256 AN Heusden",
    "latitude": 51.7328248,
    "longitude": 5.1388207
  },
  {
    "name": "Het Hof van Nederland",
    "thumbnail": "https://cdn.museum.nl/assets/1faf7e60-fd9d-4911-a65d-71d9cf8bac3a?w=420&h=280&c=4755b5d2b9f7ac3e36a5d0c9f5cf1396df70e4bdb40057bac364cc024cf18767",
    "link": "https://www.museum.nl/nl/het-hof-van-nederland",
    "location": "Hof 6 3311 XG Dordrecht",
    "latitude": 51.8156356,
    "longitude": 4.6701107
  },
  {
    "name": "Het Hollands Kaasmuseum",
    "thumbnail": "https://cdn.museum.nl/assets/68da246f-b417-42f0-b044-d0773e0b414a?w=420&h=280&c=9207b627acd723048e7f2762e884cdb99d7c72ea23431f4e9f40520c7cee226b",
    "link": "https://www.museum.nl/nl/het-hollands-kaasmuseum",
    "location": "Waagplein 2 1811 JP Alkmaar",
    "latitude": 52.6313921,
    "longitude": 4.7501307
  },
  {
    "name": "Het MOW | Museum Westerwolde",
    "thumbnail": "https://cdn.museum.nl/assets/d10d253c-f8be-44d5-8120-8935ae2ae0a2?w=420&h=280&c=63393f8bc376ad886018a514cd4ffd3e7236d3e32b9698b81003fe16b2361414",
    "link": "https://www.museum.nl/nl/het-mow-museum-westerwolde",
    "location": "Hoofdweg 161 9695 AE Bellingwolde",
    "latitude": 53.1130672,
    "longitude": 7.1620209
  },
  {
    "name": "Het Nederlands Vestingmuseum",
    "thumbnail": "https://cdn.museum.nl/assets/946d8be1-1cb9-4454-81d4-66067a363898?w=420&h=280&c=8b6a705def9ed52aeda7e0d08db34e03acdd1c97aec5ad5197155ca73f67b596",
    "link": "https://www.museum.nl/nl/het-nederlands-vestingmuseum",
    "location": "Westwalstraat 6 1411 PB Naarden",
    "latitude": 52.2934405,
    "longitude": 5.1600183
  },
  {
    "name": "Het Nieuwe Domein",
    "thumbnail": "https://cdn.museum.nl/assets/89106adb-e128-4d15-aed9-a70cf2f6efa3?w=420&h=280&c=2a12d66b8f14826d8485a41e813dc3b6eb1a18c1f74ebf7ba7b807beba43a80d",
    "link": "https://www.museum.nl/nl/het-nieuwe-domein",
    "location": "Ligne 5 6131 MT Sittard",
    "latitude": 51.0001804,
    "longitude": 5.8663475
  },
  {
    "name": "Het Noordbrabants Museum",
    "thumbnail": "https://cdn.museum.nl/assets/3607423a-39f7-44bb-ba15-ace84b494b04?w=420&h=280&c=c3d587212e7331aea4ece4072b894c055ee78f036431f6c3d335c037ceeeccf2",
    "link": "https://www.museum.nl/nl/het-noordbrabants-museum",
    "location": "Verwersstraat 41 5211 HT Den Bosch",
    "latitude": 51.6865802,
    "longitude": 5.3046847
  },
  {
    "name": "Het Oude Raadhuis Urk",
    "thumbnail": "https://cdn.museum.nl/assets/3280b72d-c287-4870-bc45-1ae3ee7c5738?w=420&h=280&c=cf810d08ba7eb1d40534c03692cc055cb501a7a8d9669ff771bc1e95ac8c2b69",
    "link": "https://www.museum.nl/nl/het-oude-raadhuis-urk",
    "location": "Wijk 2 - 2 8321 EP Urk",
    "latitude": 52.661365,
    "longitude": 5.5960235
  },
  {
    "name": "Het Romeins Museum",
    "thumbnail": "https://cdn.museum.nl/assets/9c6627ee-b8f8-4b0e-8304-84434a650799?w=420&h=280&c=586bff986b39424dfae079fce60cb225295557527d8e8b315190f577eb534543",
    "link": "https://www.museum.nl/nl/het-romeins-museum",
    "location": "Coriovallumstraat 9 6411 CA Heerlen",
    "latitude": 50.8851066,
    "longitude": 5.9766467
  },
  {
    "name": "Het Scheepvaartmuseum",
    "thumbnail": "https://cdn.museum.nl/assets/85671e68-7699-491b-b4e3-10a87da582f8?w=420&h=280&c=916fd0a94dc5caa14fce7ce9fb84a590e525464850cecb2db4d8e90fbaea5dd1",
    "link": "https://www.museum.nl/nl/het-scheepvaartmuseum",
    "location": "Kattenburgerplein 1 1018 KK Amsterdam",
    "latitude": 52.372005,
    "longitude": 4.9149527
  },
  {
    "name": "Het Schoenenkwartier",
    "thumbnail": "https://cdn.museum.nl/assets/a91addce-db53-4be6-8807-f88f59732a7a?w=420&h=280&c=b5f72dd3a98ae61b3c3de05f9496403d00c5f2e2490d3be58c19cf2a0b3681a9",
    "link": "https://www.museum.nl/nl/het-schoenenkwartier",
    "location": "Raadhuisplein 1-2 5141 KG Waalwijk",
    "latitude": 51.6907498,
    "longitude": 5.0663484
  },
  {
    "name": "Het Sterkenhuis",
    "thumbnail": "https://cdn.museum.nl/assets/8a0a610d-3cbc-495c-ace8-d3c0647fd68d?w=420&h=280&c=309458475da904840aaea6da5bdcb9694e041d2a5501e772f67a7873b9887010",
    "link": "https://www.museum.nl/nl/het-sterkenhuis",
    "location": "Oude Prinsweg 21 1861 CS Bergen NH",
    "latitude": 52.6697229,
    "longitude": 4.6996399
  },
  {
    "name": "Het Utrechts Archief",
    "thumbnail": "https://cdn.museum.nl/assets/f105ef11-196a-401e-9fd8-001153eaf920?w=420&h=280&c=20f4b20c48c3594720ad12b588c6df603c34502db9c9fc54ca6402daa9a2b082",
    "link": "https://www.museum.nl/nl/het-utrechts-archief",
    "location": "Hamburgerstraat 28 3512 NS Utrecht",
    "latitude": 52.089056,
    "longitude": 5.1228396
  },
  {
    "name": "Historiehuis Roermond",
    "thumbnail": "https://cdn.museum.nl/assets/d8e41856-a13e-4384-8e80-9cf7e0ce8a19?w=420&h=280&c=35117e0c5c825a6bf6c4b6eb726fe94f5732763e6bdea01a8de90d1a3aca700b",
    "link": "https://www.museum.nl/nl/historiehuis-roermond",
    "location": "Neerstraat 11-13 6041 KA Roermond",
    "latitude": 51.1939473,
    "longitude": 5.9854578
  },
  {
    "name": "Historisch Museum De Bevelanden",
    "thumbnail": "https://cdn.museum.nl/assets/7481f203-2187-42d1-b74b-18b4f13da614?w=420&h=280&c=8780e8f090ed767b1458fd86f7bc3e87677676800b134e10ce9cee9c4aaf8e23",
    "link": "https://www.museum.nl/nl/historisch-museum-de-bevelanden",
    "location": "Singelstraat 13 4461 HZ Goes",
    "latitude": 51.5027081,
    "longitude": 3.8899501
  },
  {
    "name": "Historisch Museum Den Briel",
    "thumbnail": "https://cdn.museum.nl/assets/209c7232-a4bf-4f9b-a8bc-b6bd59911a51?w=420&h=280&c=03bc30ae68f5d74ffdcc84b0e9635639b6c03be3402693f87127394809b530a2",
    "link": "https://www.museum.nl/nl/historisch-museum-den-briel",
    "location": "Markt 1 3231 AH Brielle",
    "latitude": 51.9022554,
    "longitude": 4.164558
  },
  {
    "name": "Historisch Museum Ede",
    "thumbnail": "https://cdn.museum.nl/assets/2ad9d215-700c-4fa0-a39b-ac535ad08848?w=420&h=280&c=2e7c29210f832709663ebf168c3f9b4205b1ed75b1045aad23014b03e13d6347",
    "link": "https://www.museum.nl/nl/historisch-museum-ede",
    "location": "Molenstraat 45 6711 AW Ede",
    "latitude": 52.0465614,
    "longitude": 5.6672796
  },
  {
    "name": "Cruquius Museum",
    "thumbnail": "https://cdn.museum.nl/assets/a3d64162-5951-4253-bec6-fde636a1d40e?w=420&h=280&c=380021624a45627eb96e5fd77c39409535439c7faa0e3ee2e1fe44b04df5891e",
    "link": "https://www.museum.nl/nl/historisch-museum-haarlemmermeer",
    "location": "Cruquiusdijk 27 2142 ER Cruquius",
    "latitude": 52.3381986,
    "longitude": 4.6380917
  },
  {
    "name": "Historisch Museum Vriezenveen",
    "thumbnail": "https://cdn.museum.nl/assets/ce74c375-f950-4cb0-8f73-d7cf7068ee9a?w=420&h=280&c=7cf872c09b3542f0dc1d2ea7705837ac9f7700f4f19baf42533e32423533bf85",
    "link": "https://www.museum.nl/nl/historisch-museum-vriezenveen",
    "location": "Westeinde 54 7671 CD Vriezenveen",
    "latitude": 52.4124003,
    "longitude": 6.6253351
  },
  {
    "name": "Historische Tuin Aalsmeer",
    "thumbnail": "https://cdn.museum.nl/assets/669db156-5c0b-4e48-935a-902f821d4e28?w=420&h=280&c=ad3aa6f2f51a363be9f6f784a75cea5773d366e325efdc28acc5480ae4cd825d",
    "link": "https://www.museum.nl/nl/historische-tuin-aalsmeer",
    "location": "Praamplein 1A 1431 CV Aalsmeer",
    "latitude": 52.2678184,
    "longitude": 4.7469806
  },
  {
    "name": "Honig Breethuis",
    "thumbnail": "https://cdn.museum.nl/assets/3c660248-bf34-4a0a-826f-830bbea36bba?w=420&h=280&c=57bc5b88e4cc9de36b664abf3bce014fb1a5cfcf9e1b3e293b626e2b1ada7c76",
    "link": "https://www.museum.nl/nl/honig-breethuis",
    "location": "Lagedijk 80 1544 BJ Zaandijk",
    "latitude": 52.4733738,
    "longitude": 4.8132797
  },
  {
    "name": "Hortus botanicus Leiden",
    "thumbnail": "https://cdn.museum.nl/assets/a15b7ae6-d96d-4f9d-aa4b-422a41e45907?w=420&h=280&c=7312a99c7805412ccdc7b8728f2b352dcbd4a4e4133370bd7bb9ffd59bf7baf9",
    "link": "https://www.museum.nl/nl/hortus-botanicus-leiden",
    "location": "Rapenburg 73 2311 GJ Leiden",
    "latitude": 52.1571451,
    "longitude": 4.4853784
  },
  {
    "name": "Huis Barnaart",
    "thumbnail": "https://cdn.museum.nl/assets/1cf7129c-2141-4feb-b4e3-c6bdc3cd060b?w=420&h=280&c=d1aa4c78c0a7d62572b85fd59515b754e4bf052ac7b79525a438d1d60e43a5c0",
    "link": "https://www.museum.nl/nl/huis-barnaart",
    "location": "Nieuwe Gracht 7 2011 NB Haarlem",
    "latitude": 52.3846561,
    "longitude": 4.6373983
  },
  {
    "name": "Huis Marseille, Museum voor Fotografie",
    "thumbnail": "https://cdn.museum.nl/assets/df56a0f6-9119-4584-9bfc-11c200104437?w=420&h=280&c=6611413a06672115eeb50d0b2e67263063c14c7d003bc102d182c96db623c01c",
    "link": "https://www.museum.nl/nl/huis-marseille-museum-voor-fotografie",
    "location": "Keizersgracht 401 1016 EK Amsterdam",
    "latitude": 52.3676378,
    "longitude": 4.8848092
  },
  {
    "name": "Huis Sonneveld",
    "thumbnail": "https://cdn.museum.nl/assets/e0fbc29e-7b14-46dd-b6a1-e5a41eeec26f?w=420&h=280&c=cf225b9776cfb745c81b645e25798c602864498b6fc3c714795353a9cfef3974",
    "link": "https://www.museum.nl/nl/huis-sonneveld",
    "location": "Jongkindstraat 12 3015 CG Rotterdam",
    "latitude": 51.9156034,
    "longitude": 4.4723282
  },
  {
    "name": "Huis Van Gijn",
    "thumbnail": "https://cdn.museum.nl/assets/84bdd3de-8132-4c82-b923-474f7095cb18?w=420&h=280&c=8572e4d2d24956639453429262a0873a5a23463d793e5336892210e75df01a30",
    "link": "https://www.museum.nl/nl/huis-van-gijn",
    "location": "Nieuwe Haven 29-30 3311 AP Dordrecht",
    "latitude": 51.8169064,
    "longitude": 4.664846
  },
  {
    "name": "Huis Verwolde",
    "thumbnail": "https://cdn.museum.nl/assets/8e894f92-cade-45f6-b9ea-b91314f69fd5?w=420&h=280&c=8443f6f1316be79ac9d1f406caa11a329f71459d97418e3c64066d14fe44ad06",
    "link": "https://www.museum.nl/nl/huis-verwolde",
    "location": "Jonker Emilelaan 4 7245 TL Laren",
    "latitude": 52.2004843,
    "longitude": 6.3919158
  },
  {
    "name": "Huis Willet-Holthuysen",
    "thumbnail": "https://cdn.museum.nl/assets/c186334b-4ce2-4a94-b43a-7cec6a4f05cc?w=420&h=280&c=3a7ad1b2102ef45e15b09a2eed483d1ee4d8173be7b73db44a2c2de329688424",
    "link": "https://www.museum.nl/nl/huis-willet-holthuysen",
    "location": "Herengracht 605 1017 CE Amsterdam",
    "latitude": 52.3656031,
    "longitude": 4.8990152
  },
  {
    "name": "Huis Zypendaal",
    "thumbnail": "https://cdn.museum.nl/assets/6b724f4b-f852-4f8a-83b9-8325cae13625?w=420&h=280&c=7c8844aaaef9c8968310f10c853b0be54719ac18d0acae4a55cc0228d7c9205c",
    "link": "https://www.museum.nl/nl/huis-zypendaal",
    "location": "Zypendaalseweg 44 6814 CL Arnhem",
    "latitude": null,
    "longitude": null
  },
  {
    "name": "Huis van Hilde",
    "thumbnail": "https://cdn.museum.nl/assets/9831e0fa-7d16-4c6e-9361-2e6e97fda328?w=420&h=280&c=655ac1a1f47772135264faf1b812c32416358fdbf366cae65852bd3a7f2a80e1",
    "link": "https://www.museum.nl/nl/huis-van-hilde",
    "location": "Westerplein 6 1901 NA Castricum",
    "latitude": 52.5446085,
    "longitude": 4.6580357
  },
  {
    "name": "Huis van het boek",
    "thumbnail": "https://cdn.museum.nl/assets/333579f9-2600-452a-a658-515d37e0b8c5?w=420&h=280&c=2ceb04653cf88c171af11d896b9bfca5817d5b7b65c8aaac9f63614b85a8315a",
    "link": "https://www.museum.nl/nl/huis-van-het-boek",
    "location": "Prinsessegracht 30 2514 AP Den Haag",
    "latitude": 52.0850056,
    "longitude": 4.3157332
  },
  {
    "name": "Huizer Museum",
    "thumbnail": "https://cdn.museum.nl/assets/fe621e90-34a6-4f3c-9842-788144af278e?w=420&h=280&c=e1a8615327b18b3184369d7693091db377a857d622554d476f8eed4d77b0c5b5",
    "link": "https://www.museum.nl/nl/huizer-museum",
    "location": "Achterbaan 82 1271 TZ Huizen",
    "latitude": 52.300011,
    "longitude": 5.2345386
  },
  {
    "name": "Hunebedcentrum",
    "thumbnail": "https://cdn.museum.nl/assets/c14b68cc-15d9-426a-a583-2f853d050ea3?w=420&h=280&c=985a7beb7124e3048c001f4d58599b6cb58ab2a26ca03c0f1fe8bb5e2cc197e5",
    "link": "https://www.museum.nl/nl/hunebedcentrum",
    "location": "Bronnegerstraat 12 9531 TG Borger",
    "latitude": 52.9310286,
    "longitude": 6.7974275
  },
  {
    "name": "Huygens Museum",
    "thumbnail": "https://cdn.museum.nl/assets/5ac39dac-522a-455d-b100-2e0aff94d27e?w=420&h=280&c=8756cb5d246706cc2af4061218e6bd3f63d5f1d1f7291047182b6b4da6a16550",
    "link": "https://www.museum.nl/nl/huygens-museum",
    "location": "Westeinde 2A 2275 AD Voorburg",
    "latitude": 52.0648551,
    "longitude": 4.3626169
  },
  {
    "name": "IJmuider Zee- en Havenmuseum",
    "thumbnail": "https://cdn.museum.nl/assets/f2de3d73-8aa8-4547-a22a-720a5f61c80e?w=420&h=280&c=4fac9796441a014c19d4f9d500d95f7c063c2deea56364e33dc9ec79bbdb6c99",
    "link": "https://www.museum.nl/nl/ijmuider-zee-en-havenmuseum",
    "location": "Havenkade 55 1973 AK Ijmuiden",
    "latitude": 52.4575258,
    "longitude": 4.5987038
  },
  {
    "name": "Ikonenmuseum Kampen",
    "thumbnail": "https://cdn.museum.nl/assets/b9d8bf8a-030b-4830-b278-d7a4cf6cfc8b?w=420&h=280&c=2e262d286c983b779c1b26d134b1742f7ed575ea013f594997a72f753cac1ba8",
    "link": "https://www.museum.nl/nl/ikonenmuseum-kampen",
    "location": "Buiten Nieuwstraat 2 8261 AV Kampen",
    "latitude": 52.5586674,
    "longitude": 5.9152696
  },
  {
    "name": "Industrieel Museum Zeeland",
    "thumbnail": "https://cdn.museum.nl/assets/d2dda076-454c-4fe9-87a4-55adbd3bd453?w=420&h=280&c=d4046ec3584eb646b3cddfdcccf16363028199650471a0c3475f4de0bd31e870",
    "link": "https://www.museum.nl/nl/industrieel-museum-zeeland",
    "location": "Westkade 114 4551 LA Sas Van Gent",
    "latitude": 51.231218,
    "longitude": 3.8008093
  },
  {
    "name": "Industrieel Smalspoormuseum",
    "thumbnail": "https://cdn.museum.nl/assets/1332eace-70a3-470c-a263-3eeb89fd227c?w=420&h=280&c=e66183367df8a85d9ebbb937475fc870bc489cff4b3f0a1501fbe90d72ddeb7b",
    "link": "https://www.museum.nl/nl/industrieel-smalspoormuseum",
    "location": "Griendtsveenstraat 140 7887 TK Erica",
    "latitude": 52.6780529,
    "longitude": 6.950456
  },
  {
    "name": "Internationaal Klompenmuseum",
    "thumbnail": "https://cdn.museum.nl/assets/2528fc32-4603-403a-ad9d-c94f013ec052?w=420&h=280&c=235303c910fa841eaae02b986ed372d169ed14575e41c4e88453bf16d2f6374e",
    "link": "https://www.museum.nl/nl/internationaal-klompenmuseum",
    "location": "Wolfhorn 1 9761 BA Eelde",
    "latitude": 53.1381587,
    "longitude": 6.5680018
  },
  {
    "name": "Japanmuseum SieboldHuis",
    "thumbnail": "https://cdn.museum.nl/assets/4d75ead5-fb35-483f-b214-dcadaa3bbb09?w=420&h=280&c=904f66bf857be1ecc89a4a9c2624222c5bc74a0af6f2eb7bec33736586945a42",
    "link": "https://www.museum.nl/nl/japanmuseum-sieboldhuis",
    "location": "Rapenburg 19 2311 GE Leiden",
    "latitude": 52.1596532,
    "longitude": 4.4845304
  },
  {
    "name": "Jenevermuseum",
    "thumbnail": "https://cdn.museum.nl/assets/f28086f5-bb58-4ce1-b07e-8b969f576982?w=420&h=280&c=1ea5a6cc1ecd4ab405adc0fbae8db81664209ad88fb0c43528b3d6f3071a9029",
    "link": "https://www.museum.nl/nl/jenevermuseum",
    "location": "Lange Haven 74 3111 CH Schiedam",
    "latitude": 51.9152316,
    "longitude": 4.3973126
  },
  {
    "name": "Joods Museum",
    "thumbnail": "https://cdn.museum.nl/assets/c160e073-bc30-4cfc-bad5-53f38bb580cd?w=420&h=280&c=9efe60083dd6dda1c64aefc5b2f67e355909285880d838ebae0c42a260a445c2",
    "link": "https://www.museum.nl/nl/joods-museum",
    "location": "Nieuwe Amstelstraat 1 1011 PL Amsterdam",
    "latitude": 52.3671491,
    "longitude": 4.9037833
  },
  {
    "name": "Jopie Huisman Museum",
    "thumbnail": "https://cdn.museum.nl/assets/150d5c4c-a229-49cc-8890-e2235ff3598e?w=420&h=280&c=26f6be84f794ea2251ded389ba15a3a61ea0d207c589c8c24a51ead4dc742258",
    "link": "https://www.museum.nl/nl/jopie-huisman-museum",
    "location": "Noard 6 8711 AH Workum",
    "latitude": 52.9798315,
    "longitude": 5.4436243
  },
  {
    "name": "KM21",
    "thumbnail": "https://cdn.museum.nl/assets/c10343b3-a225-4a78-ae4e-20ab6fd1816c?w=420&h=280&c=6a59a7f90bc296255363d21bb2885d3738d7cd85eb664230d7963d111acf924a",
    "link": "https://www.museum.nl/nl/km21",
    "location": "Stadhouderslaan 43 2517 HV Den Haag",
    "latitude": 52.0904195,
    "longitude": 4.2796643
  },
  {
    "name": "Kasteel Amerongen",
    "thumbnail": "https://cdn.museum.nl/assets/d61a84f6-dabf-4c02-9c70-7070eb98a6be?w=420&h=280&c=0026f897d77fa4934260d3cd98534143235979c8391db00f44ba4d30c5348055",
    "link": "https://www.museum.nl/nl/kasteel-amerongen",
    "location": "Drostestraat 20 3958 BK Amerongen",
    "latitude": 51.9971765,
    "longitude": 5.4588579
  },
  {
    "name": "Kasteel Ammersoyen",
    "thumbnail": "https://cdn.museum.nl/assets/b2fb598b-3474-4e50-9173-e26386a829e7?w=420&h=280&c=9e8c0e21b7bc8191b74fc4f3a8e5319cd3ff006ec22080f667d7bc063f45cc8a",
    "link": "https://www.museum.nl/nl/kasteel-ammersoyen",
    "location": "Kasteellaan 1 5324 JR Ammerzoden",
    "latitude": 51.7521417,
    "longitude": 5.2290948
  },
  {
    "name": "Kasteel Cannenburch",
    "thumbnail": "https://cdn.museum.nl/assets/3a2a2a2f-14b8-4769-91d0-524ace7259e2?w=420&h=280&c=f1077060612e64d42a05854f1235efcfb3be3e9090b681c9ec5d9033b680beb4",
    "link": "https://www.museum.nl/nl/kasteel-cannenburch",
    "location": "Maarten van Rossumplein 4 8171 EB Vaassen",
    "latitude": 52.291717,
    "longitude": 5.9647468
  },
  {
    "name": "Kasteel Doornenburg",
    "thumbnail": "https://cdn.museum.nl/assets/346f19b5-4b6a-457b-82ea-32d40024cde3?w=420&h=280&c=e4f05addc308b84ca837a988d00ddf115eba40919bd3607578e70f562c5838b8",
    "link": "https://www.museum.nl/nl/kasteel-doornenburg",
    "location": "Kerkstraat 27 6686 BS Doornenburg",
    "latitude": 51.8943664,
    "longitude": 5.9989469
  },
  {
    "name": "Kasteel Doorwerth",
    "thumbnail": "https://cdn.museum.nl/assets/0282d89d-dbae-456a-b9d9-2003ddfa3806?w=420&h=280&c=9fe9dc19f9add3cd6150abd7aafaf367023e344233f037afc049d2f161fe5be1",
    "link": "https://www.museum.nl/nl/kasteel-doorwerth",
    "location": "Fonteinallee 2B 6865 ND Doorwerth",
    "latitude": 51.966704,
    "longitude": 5.7888506
  },
  {
    "name": "Kasteel Duivenvoorde",
    "thumbnail": "https://cdn.museum.nl/assets/9dc48ffd-7c07-42e5-9af5-86e79f44dbc9?w=420&h=280&c=689ef1395d8ab2412f20e7e1295f6e47a78d5f483c8168ec9c73c39852dbc978",
    "link": "https://www.museum.nl/nl/kasteel-duivenvoorde",
    "location": "Laan van Duivenvoorde 4 2252 AK Voorschoten",
    "latitude": 52.111344,
    "longitude": 4.4174078
  },
  {
    "name": "Kasteel Heeswijk",
    "thumbnail": "https://cdn.museum.nl/assets/8882fefa-46fa-4227-a2b2-38ef97d43477?w=420&h=280&c=c31c114389243acb83d003d3054493dfc7110ad4f007b4fc6edc5a3649813d89",
    "link": "https://www.museum.nl/nl/kasteel-heeswijk",
    "location": "Kasteel 4 5473 VA Heeswijk-Dinther",
    "latitude": 51.6558457,
    "longitude": 5.4411775
  },
  {
    "name": "Kasteel Hernen",
    "thumbnail": "https://cdn.museum.nl/assets/fd35a7c8-274f-49e6-a1d2-da9c0c5bab23?w=420&h=280&c=49f0855b7c74732251fffb9d143fc3379a4f605dc7dda2964a88b8d6a396c373",
    "link": "https://www.museum.nl/nl/kasteel-hernen",
    "location": "Dorpsstraat 40 6616 AH Hernen",
    "latitude": 51.834573,
    "longitude": 5.6764742
  },
  {
    "name": "Kasteel Het Nijenhuis",
    "thumbnail": "https://cdn.museum.nl/assets/fb8cc218-eb9d-4ac2-8061-a247f7cdca3d?w=420&h=280&c=1a1241091f0e9313754de47b22c0a8ed1d7ee3db2ac343c843e4d0428956fbef",
    "link": "https://www.museum.nl/nl/kasteel-het-nijenhuis",
    "location": "t Neijenhuis 10 8131 RD Heino/Wijhe",
    "latitude": null,
    "longitude": null
  },
  {
    "name": "Kasteel Hoensbroek",
    "thumbnail": "https://cdn.museum.nl/assets/2f22cf6c-9b07-45ed-947e-dcbf96d3a477?w=420&h=280&c=a2e13e4809b9cd766b939ec747cd626224953ecfa2b4a94d4e59001ce265ecd7",
    "link": "https://www.museum.nl/nl/kasteel-hoensbroek",
    "location": "Klinkertstraat 118 6433 PB Hoensbroek",
    "latitude": 50.9165637,
    "longitude": 5.9184106
  },
  {
    "name": "Kasteel Huis Bergh",
    "thumbnail": "https://cdn.museum.nl/assets/8cb93ed7-2e61-4513-af35-1a9a961bf773?w=420&h=280&c=227237ad784c5053b93df1c551d3bf37b3655d2d7d0bdd8016a3bb4ff5263b2e",
    "link": "https://www.museum.nl/nl/kasteel-huis-bergh",
    "location": "Hof van Bergh 8 7041 AC 's-Heerenberg",
    "latitude": 51.8740874,
    "longitude": 6.2415569
  },
  {
    "name": "Kasteel Keukenhof",
    "thumbnail": "https://cdn.museum.nl/assets/5d0a2470-0328-47ee-9eee-c3ccd1f887c2?w=420&h=280&c=39b5f61753ff0a103817fb1aae1dafb7d0bc5a00d71bfb0302e69a8e7606055e",
    "link": "https://www.museum.nl/nl/kasteel-keukenhof",
    "location": "Keukenhof 1 2161 AN Lisse",
    "latitude": 52.2677571,
    "longitude": 4.5401387
  },
  {
    "name": "Kasteel Museum Sypesteyn",
    "thumbnail": "https://cdn.museum.nl/assets/b04465cb-0cad-4622-9aaf-31b4c876caf9?w=420&h=280&c=024b5a4de8eaac1dec07691686b3648a8b1e365817524c6273c53087a9f96ec8",
    "link": "https://www.museum.nl/nl/kasteel-museum-sypesteyn",
    "location": "Nieuw Loosdrechtsedijk 150 1231 LC Loosdrecht",
    "latitude": 52.1935416,
    "longitude": 5.1224148
  },
  {
    "name": "Kasteel Radboud",
    "thumbnail": "https://cdn.museum.nl/assets/5909bec1-4031-4a9d-8907-6c4b4e3ee6d1?w=420&h=280&c=2b42d5374b1df0909ae157c0aefaced28cf5be9bbd257232097e71bd1d317fd4",
    "link": "https://www.museum.nl/nl/kasteel-radboud",
    "location": "Oudevaartsgat 8 1671 HM Medemblik",
    "latitude": 52.7724319,
    "longitude": 5.1131257
  },
  {
    "name": "Kasteel Rosendael",
    "thumbnail": "https://cdn.museum.nl/assets/1f48c0f1-3ddb-40af-8ed8-488683d60b42?w=420&h=280&c=1ce6ef680f3c35c7ad2599a9e3c83a64db6aeaba1c291fca4b3f669764a280fc",
    "link": "https://www.museum.nl/nl/kasteel-rosendael",
    "location": "Rosendael 1 6891 DA Rozendaal",
    "latitude": 52.0094886,
    "longitude": 5.9636379
  },
  {
    "name": "Kasteel de Haar",
    "thumbnail": "https://cdn.museum.nl/assets/ed7ad5b3-67ba-4f00-bcb9-46d7ca7c6240?w=420&h=280&c=86fefb35a19289aaf76c6b18ea0bd875007801068d8a621591bd2f4868627d88",
    "link": "https://www.museum.nl/nl/kasteel-de-haar",
    "location": "Kasteellaan 1 3455 RR Haarzuilens",
    "latitude": 52.1200758,
    "longitude": 4.9841371
  },
  {
    "name": "KasteelruÃ¯ne - Fluweelengrot Valkenburg",
    "thumbnail": "https://cdn.museum.nl/assets/d0c6571d-68e9-4e05-a36b-8398c1400386?w=420&h=280&c=f5583fecd2ebaeb7509af2fb628137bbb47ee536268dbc114b3d4bf2f02bb2ab",
    "link": "https://www.museum.nl/nl/kasteelruine-fluweelengrot-valkenburg",
    "location": "Daalhemerweg 27 6301 BJ Valkenburg",
    "latitude": 50.8610324,
    "longitude": 5.8303526
  },
  {
    "name": "Katwijks Museum",
    "thumbnail": "https://cdn.museum.nl/assets/29861934-a8e6-44f4-a9eb-a43c09c01934?w=420&h=280&c=e328e013b31724c7cd7afbdcdeb26321cdbb7da64259d1d9e12df7d8b39b49f2",
    "link": "https://www.museum.nl/nl/katwijks-museum",
    "location": "Voorstraat 46 2225 ER Katwijk aan Zee",
    "latitude": 52.2036994,
    "longitude": 4.3970675
  },
  {
    "name": "Kazemattenmuseum Kornwerderzand",
    "thumbnail": "https://cdn.museum.nl/assets/b564b36a-9242-44f8-9259-92f2660caf72?w=420&h=280&c=6e84088e266615f6a337e84e0bdc86e7b3d87adbd8190570dabafc36722d3053",
    "link": "https://www.museum.nl/nl/kazemattenmuseum-kornwerderzand",
    "location": "Afsluitdijk 5 8752 TP Kornwerderzand",
    "latitude": 53.073382,
    "longitude": 5.3338626
  },
  {
    "name": "Kempenmuseum De Acht Zaligheden",
    "thumbnail": "https://cdn.museum.nl/assets/e2424db7-79f3-40df-af4d-ed929ca552ad?w=420&h=280&c=72050f984ace4798989b0760c49ac1bb489e8fcbcc5a75b8f34a6ec87d687108",
    "link": "https://www.museum.nl/nl/kempenmuseum-de-acht-zaligheden",
    "location": "Kapelweg 2 5521 JJ Eersel",
    "latitude": 51.353419,
    "longitude": 5.3116912
  },
  {
    "name": "Keramiekcentrum Tiendschuur Tegelen",
    "thumbnail": "https://cdn.museum.nl/assets/d3a7c0aa-aa9f-4d93-986c-8f81cd6cca66?w=420&h=280&c=4385a80fa68f014e09cf3ce34c34fec4fb83bdee040f92f8a4d26321d94aec0c",
    "link": "https://www.museum.nl/nl/keramiekcentrum-tiendschuur-tegelen",
    "location": "Kasteellaan 8 5932 AG Tegelen",
    "latitude": 51.3316972,
    "longitude": 6.1368913
  },
  {
    "name": "Keramiekmuseum Princessehof",
    "thumbnail": "https://cdn.museum.nl/assets/69fe65a3-8d00-42c1-9a21-0179b47ffce9?w=420&h=280&c=f636f3587c002615ba63c56c359c1411bc8d495002d1d2f62709c7e273ecad37",
    "link": "https://www.museum.nl/nl/keramiekmuseum-princessehof",
    "location": "Grote Kerkstraat 11 8911 DZ Leeuwarden",
    "latitude": 53.2031541,
    "longitude": 5.7920954
  },
  {
    "name": "Kessels Museum",
    "thumbnail": "https://cdn.museum.nl/assets/0f607b8d-f92e-496f-af7f-6caf10f30bf6?w=420&h=280&c=c1449965fd2d64a9151c2ce1fcd358696e5e3befb9c6bbaad638cfbf5504cdd4",
    "link": "https://www.museum.nl/nl/kessels-museum",
    "location": "Stationsstraat 26 5038 ED Tilburg",
    "latitude": 51.5583106,
    "longitude": 5.0823078
  },
  {
    "name": "Kijk en Luistermuseum",
    "thumbnail": "https://cdn.museum.nl/assets/06c68bbb-6aa2-4276-a241-99166891fca4?w=420&h=280&c=1bb15fe02da0b14df49b25f12e75403603a7b913c26a04a8d98b2ef9ae8c6138",
    "link": "https://www.museum.nl/nl/kijk-en-luistermuseum",
    "location": "Kerkstraat 1 6721 VA Bennekom",
    "latitude": 51.9976189,
    "longitude": 5.675093
  },
  {
    "name": "Koninklijk Eise Eisinga Planetarium",
    "thumbnail": "https://cdn.museum.nl/assets/7b9d5ad4-0b16-4d48-aef3-5423fa4b0d60?w=420&h=280&c=c8a073010de8a174cabf34b5c55bc2983e42ffbeaae60cde708a6243c99c25e7",
    "link": "https://www.museum.nl/nl/koninklijk-eise-eisinga-planetarium",
    "location": "Eise Eisingastraat 3 8801 KE Franeker",
    "latitude": 53.1874721,
    "longitude": 5.5438074
  },
  {
    "name": "Koninklijk Paleis Amsterdam",
    "thumbnail": "https://cdn.museum.nl/assets/cb45fed4-a813-402d-8b72-ff084c8d52bf?w=420&h=280&c=4da70984052b97063f2233d0d3f21fd29c10d94029f43ada9ff5ed38fe8ae274",
    "link": "https://www.museum.nl/nl/koninklijk-paleis-amsterdam",
    "location": "Dam 1012 NP Amsterdam",
    "latitude": 52.3731162,
    "longitude": 4.8923511
  },
  {
    "name": "KrÃ¶ller-MÃ¼ller Museum",
    "thumbnail": "https://cdn.museum.nl/assets/d6e2a59a-b3a9-4704-b78a-380dbfa431ba?w=420&h=280&c=bf725905ded3653e0d9c7c2c508b585ad7b253771cddec73e4c122676ee185b3",
    "link": "https://www.museum.nl/nl/kroller-muller-museum",
    "location": "Houtkampweg 6 6731 AW Otterlo",
    "latitude": 52.0962244,
    "longitude": 5.8176639
  },
  {
    "name": "Kunstfort bij Vijfhuizen",
    "thumbnail": "https://cdn.museum.nl/assets/e8a18d8a-aeb3-484b-868e-6c0fbffb7715?w=420&h=280&c=f69028371bb19dc29fbb38e89c72f3166210070ac060637bb41e9a3454d02772",
    "link": "https://www.museum.nl/nl/kunstfort-bij-vijfhuizen",
    "location": "Fortwachter 1 2141 EE Vijfhuizen",
    "latitude": 52.3474066,
    "longitude": 4.6707969
  },
  {
    "name": "Kunsthal  Rotterdam",
    "thumbnail": "https://cdn.museum.nl/assets/eac55411-ef5a-436f-b0a7-2e388cbeaf85?w=420&h=280&c=12ce65a8153ccabc9bf983449862c8d0be149047a75f2ae19751b74afd2e4756",
    "link": "https://www.museum.nl/nl/kunsthal-rotterdam",
    "location": "Westzeedijk 341 3015 AA Rotterdam",
    "latitude": 51.9106729,
    "longitude": 4.4733856
  },
  {
    "name": "Kunsthal KAdE",
    "thumbnail": "https://cdn.museum.nl/assets/11aec0d6-29b1-40cb-b975-c80679c3cecd?w=420&h=280&c=780678cde47c76ebbad236fc15287a9924949b0d5dcc67a3942624b7a7865afa",
    "link": "https://www.museum.nl/nl/kunsthal-kade",
    "location": "Eemplein 77 3812 EA Amersfoort",
    "latitude": 52.1591062,
    "longitude": 5.38309
  },
  {
    "name": "Kunstinstituut Melly",
    "thumbnail": "https://cdn.museum.nl/assets/469bc448-ad8a-4bb7-9bd1-1dd151c55500?w=420&h=280&c=cad43811a65e3be22c546e6212d641a0e860a5515f7e295967ba5f33ef8be4f4",
    "link": "https://www.museum.nl/nl/kunstinstituut-melly",
    "location": "Witte de Withstraat 50 3012 BR Rotterdam",
    "latitude": 51.9153949,
    "longitude": 4.4770797
  },
  {
    "name": "Kunstlinie Almere - Kunsthal",
    "thumbnail": "https://cdn.museum.nl/assets/cf44737b-b2d0-4b46-bc3f-5102b4fd4b24?w=420&h=280&c=4de8e7b56bec12f2ee543dbaf42fb3cc08f29242ad9267432957443216755e1d",
    "link": "https://www.museum.nl/nl/kunstlinie-almere-kunsthal",
    "location": "Esplanade 10 1315 TA Almere",
    "latitude": 52.3669292,
    "longitude": 5.2191822
  },
  {
    "name": "Kunstmuseum Den Haag",
    "thumbnail": "https://cdn.museum.nl/assets/f30cc89b-9411-4e10-a549-b2dffb6bfb4b?w=420&h=280&c=3d337b5fa3db9a313356aa4ddc16b6b83c8ce783dacbc81babe1021c7f7aff72",
    "link": "https://www.museum.nl/nl/kunstmuseum-den-haag",
    "location": "Stadhouderslaan 41 2517 HV Den Haag",
    "latitude": 52.0897241,
    "longitude": 4.2807291
  },
  {
    "name": "Kunstmuseum M.",
    "thumbnail": "https://cdn.museum.nl/assets/687a9ebb-3023-4a70-8ec8-8ac3f6841318?w=420&h=280&c=1653547feef30bfcb4ccb32d8f42e259090639cf1f6268a601429b369b7467af",
    "link": "https://www.museum.nl/nl/kunstmuseum-m",
    "location": "Melica 200 1325 WZ Almere",
    "latitude": 52.3561768,
    "longitude": 5.2291664
  },
  {
    "name": "Lalique Museum",
    "thumbnail": "https://cdn.museum.nl/assets/a038a1c0-d5f9-44bf-8e90-b255fc73de4d?w=420&h=280&c=c6269218eda8b0296d9cb896b84c3a2874d406adccbcd850c64b4f3d97527e09",
    "link": "https://www.museum.nl/nl/lalique-museum",
    "location": "Gasthuisstraaat 1 6981 CP Doesburg",
    "latitude": null,
    "longitude": null
  },
  {
    "name": "Landbouw-Juttersmuseum 'Swartwoude'",
    "thumbnail": "https://cdn.museum.nl/assets/124cc00b-1e3f-482c-b44c-24ae38bb6849?w=420&h=280&c=fa4aefcf3c8109ea683258e7b26861d4fbd4dd6df523fb1640156e8b5435fb2e",
    "link": "https://www.museum.nl/nl/landbouw-juttersmuseum-swartwoude",
    "location": "Hoofdweg 1 9164 KL Buren-Ameland",
    "latitude": 53.4473538,
    "longitude": 5.7968952
  },
  {
    "name": "Landgoed Verhildersum Leens",
    "thumbnail": "https://cdn.museum.nl/assets/5d83e3d7-79e8-494a-8ecc-531ce31504c8?w=420&h=280&c=309adffb0dc92841715a98c6c2726eb1f12a9ef76e2cb32e917e38a0aecfd957",
    "link": "https://www.museum.nl/nl/landgoed-verhildersum-leens",
    "location": "Wierde 40 9965 TB Leens",
    "latitude": 53.3625132,
    "longitude": 6.3930302
  },
  {
    "name": "Landhuis Oud Amelisweerd",
    "thumbnail": "https://cdn.museum.nl/assets/25e128d2-9771-448b-ae48-a1dc1b0ccaa7?w=420&h=280&c=88f577c50392fb7a912af07bcf972cc40ded78203404929999fadfbffd7a4adf",
    "link": "https://www.museum.nl/nl/landhuis-oud-amelisweerd",
    "location": "Koningslaan 9 3981 HD Bunnik",
    "latitude": 52.0674182,
    "longitude": 5.1696056
  },
  {
    "name": "Laurenskerk Rotterdam",
    "thumbnail": "https://cdn.museum.nl/assets/54ccdab2-9808-44f4-a622-8b1d3b674ba7?w=420&h=280&c=97aa98459f9eec26cc76a84e65136db6aa179d4e0bf1ab53f9685d3b00492c47",
    "link": "https://www.museum.nl/nl/laurenskerk-rotterdam",
    "location": "Grotekerkplein 15 3011 GC Rotterdam",
    "latitude": 51.9214512,
    "longitude": 4.4849031
  },
  {
    "name": "Leudal Museum",
    "thumbnail": "https://cdn.museum.nl/assets/01cd81ba-df7f-4cb3-8dba-50ebcbf9877b?w=420&h=280&c=5002dfc10187c3ddc47440b03fa6768c3a88bf6b8104d5cf87dc5f0b5b7555fe",
    "link": "https://www.museum.nl/nl/leudal-museum",
    "location": "Roggelseweg 58 6081 NP Haelen",
    "latitude": 51.2486613,
    "longitude": 5.9364137
  },
  {
    "name": "Liemers Museum",
    "thumbnail": "https://cdn.museum.nl/assets/a25b0b40-bd26-4add-8284-d188ad56ec76?w=420&h=280&c=bced725b07bcc4023a07e0ded9c87eb545c7acfb81458ad9777263edf2e2a49f",
    "link": "https://www.museum.nl/nl/liemers-museum",
    "location": "Kerkstraat 27 6901 AA Zevenaar",
    "latitude": 51.9243801,
    "longitude": 6.0767172
  },
  {
    "name": "Limburgs Museum",
    "thumbnail": "https://cdn.museum.nl/assets/a8eb7f13-cdfc-4ec3-94d8-6d38a0e2b611?w=420&h=280&c=1b354209926a003c08d43bc8167662c63e2a5fb1f5599fd700405dac11d28c0a",
    "link": "https://www.museum.nl/nl/limburgs-museum",
    "location": "Keulsepoort 5 5911 BX Venlo",
    "latitude": 51.3667333,
    "longitude": 6.171899
  },
  {
    "name": "Literatuurmuseum / Kinderboekenmuseum",
    "thumbnail": "https://cdn.museum.nl/assets/2713cd13-5e3b-4fce-8200-dcb7a9d9d3eb?w=420&h=280&c=c13f33bb446a172a397deb7fea28bd8856e500b0c1ee48f6d1364d87acbb736c",
    "link": "https://www.museum.nl/nl/literatuurmuseum-kinderboekenmuseum",
    "location": "Prins Willem-Alexanderhof 5 2595 BE Den Haag",
    "latitude": 52.0817694,
    "longitude": 4.3269448
  },
  {
    "name": "Louwman Museum",
    "thumbnail": "https://cdn.museum.nl/assets/bf77acd6-7175-41c2-a607-5a975538d198?w=420&h=280&c=4852c22ebbba2c7abbe7ccaebd72063cb66694a9d9e395d2939dd406eec46955",
    "link": "https://www.museum.nl/nl/louwman-museum",
    "location": "Leidsestraatweg 57 2594 BB Den Haag",
    "latitude": 52.0996146,
    "longitude": 4.3485884
  },
  {
    "name": "Luchtvaartmuseum Aviodrome",
    "thumbnail": "https://cdn.museum.nl/assets/659ee28a-3e3e-4d75-b9ca-8871361fa9fa?w=420&h=280&c=b535399b3167fed14b21167ad44f6164b1df4db062f24654f399f7952e01bb3b",
    "link": "https://www.museum.nl/nl/luchtvaartmuseum-aviodrome",
    "location": "Pelikaanweg 50 8218 PG Lelystad",
    "latitude": 52.4572965,
    "longitude": 5.5296887
  },
  {
    "name": "Luther Museum Amsterdam",
    "thumbnail": "https://cdn.museum.nl/assets/14863904-36a0-4af0-b06c-0ebe82116a74?w=420&h=280&c=68dcaab183a7dabf32c6652b50239cb9bf7bc2ba730dbe141b9e0bd51a05a94e",
    "link": "https://www.museum.nl/nl/luther-museum-amsterdam",
    "location": "Nieuwe Keizersgracht 570 1018 VG Amsterdam",
    "latitude": 52.3655242,
    "longitude": 4.9088495
  },
  {
    "name": "MU Hybrid Art House",
    "thumbnail": "https://cdn.museum.nl/assets/40bfa6a3-ebff-4ef4-b09e-214949f6fbf6?w=420&h=280&c=c25375896bca088a7c7aecdc8b5d602f4a6b863e62abd9bc800274ecb3e72867",
    "link": "https://www.museum.nl/nl/mu-hybrid-art-house",
    "location": "Torenallee 40-06 5617 BD Eindhoven",
    "latitude": 51.44714,
    "longitude": 5.4562857
  },
  {
    "name": "Maas Binnenvaartmuseum",
    "thumbnail": "https://cdn.museum.nl/assets/8549a503-db5b-4752-bbce-6998458bb2e4?w=420&h=280&c=a681af747e81999775c80f55363b5d31e1b9349e6745b8a35f447148b36301cc",
    "link": "https://www.museum.nl/nl/maas-binnenvaartmuseum",
    "location": "Havenstraat 12 6051 CR Maasbracht",
    "latitude": 51.1468506,
    "longitude": 5.8862387
  },
  {
    "name": "Maastricht Museum",
    "thumbnail": "https://cdn.museum.nl/assets/ba9eee66-344d-4957-85db-0a586fad0c90?w=420&h=280&c=d5da18e5474e786caa0ef98b076046f3a90be56212338e2ff65017ddd9db705b",
    "link": "https://www.museum.nl/nl/maastricht-museum",
    "location": "Avenue Ceramique 50 6221 KV Maastricht",
    "latitude": 50.84587,
    "longitude": 5.7014631
  },
  {
    "name": "Marechausseemuseum",
    "thumbnail": "https://cdn.museum.nl/assets/9ca1337c-f793-4f10-9a72-4159baf18d83?w=420&h=280&c=b8539254e654863ec5a9762ee50198e37277adc79eae7127ccbfee2c70073228",
    "link": "https://www.museum.nl/nl/marechausseemuseum",
    "location": "Weeshuisstraat 9 4116 BN Buren",
    "latitude": 51.9118128,
    "longitude": 5.3363461
  },
  {
    "name": "Marie Tak van Poortvliet Museum",
    "thumbnail": "https://cdn.museum.nl/assets/81ffcdae-4800-4148-a438-925becc80146?w=420&h=280&c=b186f6debd79edf4ea3e56abe0ea4a02d64d5a143dcbbf8afd8ce3f7cb5450e9",
    "link": "https://www.museum.nl/nl/marie-tak-van-poortvliet-museum",
    "location": "Ooststraat 10a 4357 BE Domburg",
    "latitude": 51.5633672,
    "longitude": 3.4983573
  },
  {
    "name": "Marinemuseum",
    "thumbnail": "https://cdn.museum.nl/assets/5d930137-ca57-4e91-8c36-b045de1e08e7?w=420&h=280&c=385d644efa8bc45087a1a2835faacd4464aa24efe4c94cd84578fd2280adb13a",
    "link": "https://www.museum.nl/nl/marinemuseum",
    "location": "Hoofdgracht 3 1781 AA Den Helder",
    "latitude": 52.9637664,
    "longitude": 4.7716837
  },
  {
    "name": "Mariniersmuseum",
    "thumbnail": "https://cdn.museum.nl/assets/d4ffd8c1-4673-4e64-b680-54d5b2f8215f?w=420&h=280&c=6ca2227edb4b3a3fc2dcdadfd71103ac9e817199a4889efa7c636ac408057cb0",
    "link": "https://www.museum.nl/nl/mariniersmuseum",
    "location": "Wijnhaven 7-13 3011 WH Rotterdam",
    "latitude": 51.9187157,
    "longitude": 4.4915635
  },
  {
    "name": "Maritiem Centrum \"Abraham Fock\"",
    "thumbnail": "https://cdn.museum.nl/assets/f9083696-418e-4218-b948-3ced29f48a9e?w=420&h=280&c=4158e9352353a45c823004d282268fad97656658fd61e596890b11885b5051db",
    "link": "https://www.museum.nl/nl/maritiem-centrum-abraham-fock",
    "location": "Oranjeweg 18 9161 CC Hollum-Ameland",
    "latitude": 53.4430389,
    "longitude": 5.6368989
  },
  {
    "name": "Maritiem Museum Rotterdam",
    "thumbnail": "https://cdn.museum.nl/assets/b690e012-453c-4690-89a1-75bef5c05df8?w=420&h=280&c=c5d345023064bd79b1ed9e91c239d39262977f9f3ed74a16d54bb2e68aa82549",
    "link": "https://www.museum.nl/nl/maritiem-museum-rotterdam",
    "location": "Leuvehaven 1 3011 EA Rotterdam",
    "latitude": 51.9176272,
    "longitude": 4.4818867
  },
  {
    "name": "Maritiem Muzeeum Zeeland",
    "thumbnail": "https://cdn.museum.nl/assets/812355d4-1f0d-4541-a99a-9f7fa287039b?w=420&h=280&c=0ad8fc819e51139b2ecd0890611738837567e340da4aede5da28eb15614a3681",
    "link": "https://www.museum.nl/nl/maritiem-muzeeum-zeeland",
    "location": "Nieuwendijk 11 4381 BV Vlissingen",
    "latitude": 51.4413744,
    "longitude": 3.575426
  },
  {
    "name": "Marius van Dokkum Museum",
    "thumbnail": "https://cdn.museum.nl/assets/40053639-fe4d-474c-bccd-1b2166940390?w=420&h=280&c=82ca3433b46eae4c0f98e7f70e06ae4731fdca436cf55bde71c43ff0a165aa57",
    "link": "https://www.museum.nl/nl/marius-van-dokkum-museum",
    "location": "Academiestraat 7 3841 ES Harderwijk",
    "latitude": 52.3483892,
    "longitude": 5.6187357
  },
  {
    "name": "Marker Museum",
    "thumbnail": "https://cdn.museum.nl/assets/cac7b55d-2af8-46ef-a821-06efebfaf55e?w=420&h=280&c=79fa3ea00003ea6ea37bc104c6bbc0891e16ebeb925ccdddabb0c999f60528a2",
    "link": "https://www.museum.nl/nl/marker-museum",
    "location": "Kerkbuurt 44-47 1156 BL Marken",
    "latitude": 52.4605129,
    "longitude": 5.1062935
  },
  {
    "name": "Markiezenhof",
    "thumbnail": "https://cdn.museum.nl/assets/ed69abd1-c80a-4ff3-a8f1-c216a2e6f28e?w=420&h=280&c=a2960553c4982ae499819ec6e5036b8a8a03361b4531db335e38cb410b32402c",
    "link": "https://www.museum.nl/nl/markiezenhof",
    "location": "Steenbergsestraat 8 4611 TE Bergen op Zoom",
    "latitude": 51.4957207,
    "longitude": 4.284808
  },
  {
    "name": "Marres, Huis voor Hedendaagse Kunst",
    "thumbnail": "https://cdn.museum.nl/assets/75f14196-4ac8-43ad-ac8b-5f054f4cc4dc?w=420&h=280&c=0df7d7ea509b070414c0b9f488f597b1994fba12173cdfeb0e5c9ecb898ef6de",
    "link": "https://www.museum.nl/nl/marres-huis-voor-hedendaagse-kunst",
    "location": "Capucijnenstraat 98 6211 RT Maastricht",
    "latitude": 50.8518926,
    "longitude": 5.685843
  },
  {
    "name": "Mauritshuis",
    "thumbnail": "https://cdn.museum.nl/assets/30b2cefe-035d-4ae5-bf91-abe46e4ce4a2?w=420&h=280&c=b04255e7161db6627ebba8f744c04c327a8587d6bf6c542330c05ac8ef64ebf6",
    "link": "https://www.museum.nl/nl/mauritshuis",
    "location": "Plein 29 2511 CS Den Haag",
    "latitude": 52.0803787,
    "longitude": 4.314834
  },
  {
    "name": "Miramar Zeemuseum",
    "thumbnail": "https://cdn.museum.nl/assets/2510ee59-fe3d-4e35-9ffb-cefcf58e95c6?w=420&h=280&c=6bdf94bf667db0f8c59be1ee655ec4e28bc665650568e7565b614163a886cc62",
    "link": "https://www.museum.nl/nl/miramar-zeemuseum",
    "location": "Vledderweg 25 8381 AB Vledder",
    "latitude": 52.8503521,
    "longitude": 6.1964
  },
  {
    "name": "Missiemuseum Steyl",
    "thumbnail": "https://cdn.museum.nl/assets/6d7ed7cb-8c1b-4f5e-93ad-2801881d649e?w=420&h=280&c=ea98648d15a5a70a236af0060a9c069c955562d543fa3220655c21499ded5899",
    "link": "https://www.museum.nl/nl/missiemuseum-steyl",
    "location": "Veerweg 6 5935 BK Steyl",
    "latitude": 51.3336449,
    "longitude": 6.1203177
  },
  {
    "name": "Molenmuseum",
    "thumbnail": "https://cdn.museum.nl/assets/4b02cc31-d241-4e62-bd5f-feeaaed861b3?w=420&h=280&c=0ce55f3c639cd48c3cb7c463ad5de154319e093c2e52c07a2187a6ddc80f7893",
    "link": "https://www.museum.nl/nl/molenmuseum",
    "location": "Kalverringdijk 30 1509 BT Zaandam",
    "latitude": 52.4788064,
    "longitude": 4.8138403
  },
  {
    "name": "Molenmuseum De Valk",
    "thumbnail": "https://cdn.museum.nl/assets/ec10278b-f52e-4284-902c-8f6683582faa?w=420&h=280&c=50f623c67bef476e085bdacad62e241bfc881418a43802f683a6545f7cd0606c",
    "link": "https://www.museum.nl/nl/molenmuseum-de-valk",
    "location": "Molenwerf 1 2312 CH Leiden",
    "latitude": 52.164557,
    "longitude": 4.4863342
  },
  {
    "name": "Mondriaanhuis",
    "thumbnail": "https://cdn.museum.nl/assets/4e1a0585-6798-421a-8d13-2e6e40ee3b9b?w=420&h=280&c=d25d2039a5556192e4aaf622dd84cf5858003c7dd583eab4658e69ea47872e5c",
    "link": "https://www.museum.nl/nl/mondriaanhuis",
    "location": "Kortegracht 11 3811 KG Amersfoort",
    "latitude": 52.1547395,
    "longitude": 5.3902679
  },
  {
    "name": "Multatuli Museum",
    "thumbnail": "https://cdn.museum.nl/assets/2ab03963-0a65-42cc-b99a-a1bb5b1999b4?w=420&h=280&c=5bfe3263c3cd9a161c67af516d11b2758719bc962e59c98d426c1aeeea3a019b",
    "link": "https://www.museum.nl/nl/multatuli-museum",
    "location": "Korsjespoortsteeg 20hs 1015 AR Amsterdam",
    "latitude": null,
    "longitude": null
  },
  {
    "name": "Museon-Omniversum",
    "thumbnail": "https://cdn.museum.nl/assets/646fa290-7778-4865-a97e-bc54181544eb?w=420&h=280&c=17ec768da134bc8a1d3bdaa31f75d56bb0616a087f5ad4cce2e71518b3bf5297",
    "link": "https://www.museum.nl/nl/museon-omniversum",
    "location": "Stadhouderslaan 37 2517 HV Den Haag",
    "latitude": 52.0889024,
    "longitude": 4.280976
  },
  {
    "name": "Museum 'De Roos'",
    "thumbnail": "https://cdn.museum.nl/assets/6508811e-5a78-4c45-b13b-37895e6757f6?w=420&h=280&c=6b63f1d1dd1f3f7131eb9ad494052eddb5d8a161ca675183a3a9f9ce0d97795c",
    "link": "https://www.museum.nl/nl/museum-de-roos",
    "location": "Markt 46 4931 BT Geertruidenberg",
    "latitude": 51.7008269,
    "longitude": 4.859769
  },
  {
    "name": "Museum 'De Tien Malen'",
    "thumbnail": "https://cdn.museum.nl/assets/4df97eba-83b7-4c82-9ab3-22634f730e69?w=420&h=280&c=1da4014bf688ebd40b7aed55f2321c76dd1bc7e60898ad15b9d42f0489f4825e",
    "link": "https://www.museum.nl/nl/museum-de-tien-malen",
    "location": "Garderenseweg 97 3881 NC Putten",
    "latitude": 52.2517913,
    "longitude": 5.6263623
  },
  {
    "name": "Museum 't Behouden Huys",
    "thumbnail": "https://cdn.museum.nl/assets/6c431bc3-9698-439a-8175-78b34018edf8?w=420&h=280&c=44a1bc974d3493039a0eb410ed87a7e4915f00b477aecba0e1fc8db9f9bccd35",
    "link": "https://www.museum.nl/nl/museum-t-behouden-huys",
    "location": "Commandeurstraat 30-32 8881 BB West-Terschelling",
    "latitude": 53.3577002,
    "longitude": 5.2147402
  },
  {
    "name": "Museum Abdijkerk",
    "thumbnail": "https://cdn.museum.nl/assets/4eedb383-19ab-4d20-831f-224177a1bd7e?w=420&h=280&c=3b72c3a797c214af175454e45d4bf9f6d4370f2d7138fec984b7b991dc1fd47f",
    "link": "https://www.museum.nl/nl/museum-abdijkerk",
    "location": "Kerkberg 1 6017 AG Thorn",
    "latitude": 51.1607648,
    "longitude": 5.8416368
  },
  {
    "name": "Museum Arnhem",
    "thumbnail": "https://cdn.museum.nl/assets/f47fc74e-e3bf-4902-a96a-34c68471e414?w=420&h=280&c=78af31d53cf8a65ed9bb91599c1620aa735f43f1b733e03d3b1eb38f19379522",
    "link": "https://www.museum.nl/nl/museum-arnhem",
    "location": "Utrechtseweg 87 6812 AA Arnhem",
    "latitude": 51.9854915,
    "longitude": 5.8922001
  },
  {
    "name": "Museum Batavialand",
    "thumbnail": "https://cdn.museum.nl/assets/22899ff4-d929-42be-842b-81a24f1b1e56?w=420&h=280&c=1da72664e951ac0d26d1e3f839bfd57569721e3d832d50c615f18e6dd6b0075f",
    "link": "https://www.museum.nl/nl/museum-batavialand",
    "location": "Oostvaardersdijk 01 13 8242 PA Lelystad",
    "latitude": 52.5213644,
    "longitude": 5.4369769
  },
  {
    "name": "Museum Beelden aan Zee",
    "thumbnail": "https://cdn.museum.nl/assets/2307c25f-e1c4-4e02-a883-d6eb1c9a8ab1?w=420&h=280&c=e1449c039266e6051faae4940d6cd35fbc6192a5ec6269347e58eeb4aa4891d8",
    "link": "https://www.museum.nl/nl/museum-beelden-aan-zee",
    "location": "Harteveltstraat 1 2586 EL Den Haag",
    "latitude": 52.1105882,
    "longitude": 4.2775515
  },
  {
    "name": "Museum BelvÃ©dÃ¨re",
    "thumbnail": "https://cdn.museum.nl/assets/09546a99-8e9b-4d1b-a15a-879f43428787?w=420&h=280&c=6e65ae7316d25ebbc555634a568870fb81dd695bab179614088edc3675095c4f",
    "link": "https://www.museum.nl/nl/museum-belvedere",
    "location": "Oranje Nassaulaan 12 8448 MT Heerenveen",
    "latitude": 52.957933,
    "longitude": 5.9619512
  },
  {
    "name": "Museum Boijmans Van Beuningen",
    "thumbnail": "https://cdn.museum.nl/assets/f7339b0c-4b8e-419a-89a4-024a8ca0fa63?w=420&h=280&c=aa76d189cbe421e7bf7bf7755585f5d2d96b4e1a31d6a7c49adc485d85e083e4",
    "link": "https://www.museum.nl/nl/museum-boijmans-van-beuningen",
    "location": "",
    "latitude": null,
    "longitude": null
  },
  {
    "name": "Museum Boxtel",
    "thumbnail": "https://cdn.museum.nl/assets/79bddc0e-4729-4678-8a14-76702f58b524?w=420&h=280&c=4b54b765755f02755704839e5d1d596fc029077564f7bf01e910ef6cfe01b049",
    "link": "https://www.museum.nl/nl/museum-boxtel",
    "location": "Baroniestraat 18 5281 JE Boxtel",
    "latitude": 51.5904947,
    "longitude": 5.3183304
  },
  {
    "name": "Museum Bredius",
    "thumbnail": "https://cdn.museum.nl/assets/7a17840f-b4fb-42b5-ae69-b717bab3327e?w=420&h=280&c=bfa40c159a2346f44178a4a6533806dae9acb5c0df3a5d299e3ada1f0925e5b7",
    "link": "https://www.museum.nl/nl/museum-bredius",
    "location": "Lange Vijverberg 14 2513 AC Den Haag",
    "latitude": 52.0812498,
    "longitude": 4.3124919
  },
  {
    "name": "Museum BroekerVeiling",
    "thumbnail": "https://cdn.museum.nl/assets/92f276f4-7d54-40d8-8ed6-da178cad6d7d?w=420&h=280&c=f2e65cc4f5530cd265977bd252c2ff804277a1d891897ee6450df13cbd45482f",
    "link": "https://www.museum.nl/nl/museum-broekerveiling",
    "location": "Museumweg 2 1721 BW Broek op Langedijk",
    "latitude": 52.6799037,
    "longitude": 4.8065687
  },
  {
    "name": "Museum Bronbeek",
    "thumbnail": "https://cdn.museum.nl/assets/9d090cbc-b9e8-4a55-a6ad-8decab599d1e?w=420&h=280&c=2701c22b5d7e7dc19a4665c91947d3f0d46ff6ee33554d9326a1f7cc8db88105",
    "link": "https://www.museum.nl/nl/museum-bronbeek",
    "location": "Velperweg 147 6824 MB Arnhem",
    "latitude": 51.995138,
    "longitude": 5.9502543
  },
  {
    "name": "Museum Bussemakerhuis",
    "thumbnail": "https://cdn.museum.nl/assets/21535aac-7833-4217-b2ef-c7b4d1276e3d?w=420&h=280&c=5f04b061f830b202e0f725306839dcade66c75eaef7d4903d1a41a2e27d1c6e6",
    "link": "https://www.museum.nl/nl/museum-bussemakerhuis",
    "location": "Ennekerdijk 11 7622 ED Borne",
    "latitude": 52.2993079,
    "longitude": 6.760794
  },
  {
    "name": "Museum Buurt Spoorweg",
    "thumbnail": "https://cdn.museum.nl/assets/bd717f92-3621-4084-a723-b1e5696ee0d7?w=420&h=280&c=c9ade15f656f7e11f929cd4901e89a806a0a761d633204d78bba6b62172b206a",
    "link": "https://www.museum.nl/nl/museum-buurt-spoorweg",
    "location": "Stationsstraat 3 7481 JA Haaksbergen",
    "latitude": 52.1584769,
    "longitude": 6.7385964
  },
  {
    "name": "Museum Catharijneconvent",
    "thumbnail": "https://cdn.museum.nl/assets/e3dfec2d-51b2-4b3e-9a81-9a68e5e5b0be?w=420&h=280&c=3356a7fb116f62fd9fc874315e915896c64dce9a1a840374d566c4730f8439e4",
    "link": "https://www.museum.nl/nl/museum-catharijneconvent",
    "location": "Lange Nieuwstraat 38 3512 PH Utrecht",
    "latitude": 52.0872546,
    "longitude": 5.1239742
  },
  {
    "name": "Museum Cobra",
    "thumbnail": "https://cdn.museum.nl/assets/5f975c67-e6a1-47c6-84d4-0c3c4ab69eeb?w=420&h=280&c=9f0a9bb989207fb6c03a228975c421016161db117d92f67c61f48182318b3178",
    "link": "https://www.museum.nl/nl/museum-cobra",
    "location": "Sandbergplein 1 1181 ZX Amstelveen",
    "latitude": 52.3037975,
    "longitude": 4.8579814
  },
  {
    "name": "Museum Collectie Brands",
    "thumbnail": "https://cdn.museum.nl/assets/024d589d-cb56-46ba-b774-95a0e034bdac?w=420&h=280&c=0a21475bf64d93578e08bd0b960865eea31abac04fe8995202ca113597a55d49",
    "link": "https://www.museum.nl/nl/museum-collectie-brands",
    "location": "Herenstreek 11 7885 AT Nieuw-Dordrecht",
    "latitude": 52.7501374,
    "longitude": 6.9700684
  },
  {
    "name": "Museum Collectie Krop",
    "thumbnail": "https://cdn.museum.nl/assets/5dac3468-74ed-4939-8a15-68f512ca0fc0?w=420&h=280&c=46e744201a30bfd8d6578db9bde7f055040bf0fae6d80ddcc5491cbd9ab52e94",
    "link": "https://www.museum.nl/nl/museum-collectie-krop",
    "location": "Gasthuislaan 2 8331 MX Steenwijk",
    "latitude": 52.7853613,
    "longitude": 6.1124869
  },
  {
    "name": "Museum De Bastei",
    "thumbnail": "https://cdn.museum.nl/assets/ee68c5d8-fa91-400d-95b3-58307c456db7?w=420&h=280&c=0c80164aee21956d359a8e38b06fb46d0a130aba15b41fc7226779314246c4d6",
    "link": "https://www.museum.nl/nl/museum-de-bastei",
    "location": "Lange Baan 4 6511 XJ Nijmegen",
    "latitude": 51.8486134,
    "longitude": 5.8694165
  },
  {
    "name": "Museum De Dorpsdokter",
    "thumbnail": "https://cdn.museum.nl/assets/3733f271-a11a-4079-bab3-570c3a1efe31?w=420&h=280&c=a8404883c66ab47eac43f100ee946b287592a64b50f6a58d46186bcc3e31c5bb",
    "link": "https://www.museum.nl/nl/museum-de-dorpsdokter",
    "location": "Doelenstraat 51 5081 CK Hilvarenbeek",
    "latitude": 51.4898743,
    "longitude": 5.1364378
  },
  {
    "name": "Museum De Koperen Knop",
    "thumbnail": "https://cdn.museum.nl/assets/3dc2c20c-3230-4f80-b8c0-091b27375c17?w=420&h=280&c=69a53290824de4ba863475c65da5c7ca5844255e14ab5aca6c74af8c5d5de639",
    "link": "https://www.museum.nl/nl/museum-de-koperen-knop",
    "location": "Binnendams 6 3373 AD Hardinxveld-Giessendam",
    "latitude": 51.8327728,
    "longitude": 4.847093
  },
  {
    "name": "Museum De Lakenhal",
    "thumbnail": "https://cdn.museum.nl/assets/175c0a28-6c93-4d92-b7de-e0c7cceec757?w=420&h=280&c=23f4f0842db2514bcee64885c881e6be40b13143e4f09c746f3ed471860d9b2f",
    "link": "https://www.museum.nl/nl/museum-de-lakenhal",
    "location": "Oude Singel 32 2312 RA Leiden",
    "latitude": 52.1629863,
    "longitude": 4.4875526
  },
  {
    "name": "Museum De Waag",
    "thumbnail": "https://cdn.museum.nl/assets/9f278421-ef70-4c49-961a-a655ceba1896?w=420&h=280&c=e486ee80c82bbfa8a5fff68a3ae073d8c4ce308a74e5dd8cd1851f563a8a2203",
    "link": "https://www.museum.nl/nl/museum-de-waag",
    "location": "Brink 56 7411 BV Deventer",
    "latitude": 52.2514927,
    "longitude": 6.1600262
  },
  {
    "name": "Museum De Wemme",
    "thumbnail": "https://cdn.museum.nl/assets/f7480e52-5c16-4fb6-92f9-5cb60c3bc966?w=420&h=280&c=c8924e60a4e40da57429c82b5fcea77c592791e378a2d29536af002e7eeae9e4",
    "link": "https://www.museum.nl/nl/museum-de-wemme",
    "location": "Burg. Tonckensstraat 49 7921 KB Zuidwolde",
    "latitude": 52.6667085,
    "longitude": 6.4189801
  },
  {
    "name": "Museum De Wieger",
    "thumbnail": "https://cdn.museum.nl/assets/14189b1a-dc2c-4935-a36a-185726fb7b8f?w=420&h=280&c=dde90d43dc046a8e454c57250cb96a321aa0dfc168c2e8125eb2ba76be48fabf",
    "link": "https://www.museum.nl/nl/museum-de-wieger",
    "location": "Oude Liesselseweg 29 5751 WN Deurne",
    "latitude": 51.4589878,
    "longitude": 5.7961092
  },
  {
    "name": "Museum De Zwarte Tulp",
    "thumbnail": "https://cdn.museum.nl/assets/a11d8cce-0c23-42d1-bf9d-a49b04bb4cc4?w=420&h=280&c=ae067446c51ad0e96ab57e5808b7d5a57c86655bfe69ffdc44662183e6597c31",
    "link": "https://www.museum.nl/nl/museum-de-zwarte-tulp",
    "location": "Heereweg 219 2161 BG Lisse",
    "latitude": 52.2590072,
    "longitude": 4.5547036
  },
  {
    "name": "Museum Dokkum",
    "thumbnail": "https://cdn.museum.nl/assets/3cbdcd50-9143-48c3-901f-af284a830564?w=420&h=280&c=7f86888991c194a6ad82def47810ca92925086773fa0018956f9c14332342997",
    "link": "https://www.museum.nl/nl/museum-dokkum",
    "location": "Diepswal 27 9101 LA Dokkum",
    "latitude": 53.3254033,
    "longitude": 6.0003796
  },
  {
    "name": "Museum Dorestad",
    "thumbnail": "https://cdn.museum.nl/assets/f37a8bad-40d4-484f-a1c4-4fe8a919a3b2?w=420&h=280&c=279dfba2a438e78c43478b7353df1bdc619e00145717fc35b772d5082ee24e4b",
    "link": "https://www.museum.nl/nl/museum-dorestad",
    "location": "Markt 24 3961 BC Wijk bij Duurstede",
    "latitude": 51.9727932,
    "longitude": 5.345411
  },
  {
    "name": "Museum Drachten",
    "thumbnail": "https://cdn.museum.nl/assets/1a2abed2-0654-44ea-a046-db8881c93d29?w=420&h=280&c=8c3e59eb242e11357c3a9800c0886a5168e196e545ca93e899ff89309b0a956c",
    "link": "https://www.museum.nl/nl/museum-drachten",
    "location": "Museumplein 2 9203 DD Drachten",
    "latitude": 53.1043396,
    "longitude": 6.0975412
  },
  {
    "name": "Museum EICAS",
    "thumbnail": "https://cdn.museum.nl/assets/57c37503-0604-4e67-901e-cfef285017a5?w=420&h=280&c=5bc0f05180f3aae2efb458bce93db4be196f1cec24474a51a55b9480ddda3380",
    "link": "https://www.museum.nl/nl/museum-eicas",
    "location": "Nieuwe Markt 23 7411 PB Deventer",
    "latitude": 52.2525244,
    "longitude": 6.1541791
  },
  {
    "name": "Museum Elburg",
    "thumbnail": "https://cdn.museum.nl/assets/88d20ce5-09c1-4c10-8b01-7e4b35b14035?w=420&h=280&c=60636b86cc6875efa91d596ac035acff33239d3663348ad4bb968ebe2e022e8a",
    "link": "https://www.museum.nl/nl/museum-elburg",
    "location": "Jufferenstraat 6-8 8081 CR Elburg",
    "latitude": 52.4482593,
    "longitude": 5.8344541
  },
  {
    "name": "Museum Engelandvaarders",
    "thumbnail": "https://cdn.museum.nl/assets/5bc5c6c8-5b01-462e-8a8b-a64e2e49956c?w=420&h=280&c=27e7577dd361641a957889e3244e82b2d12955a321e0c4ab0cee9a6dace1d162",
    "link": "https://www.museum.nl/nl/museum-engelandvaarders",
    "location": "Bosweg 15 2202 NX Noordwijk",
    "latitude": 52.2517052,
    "longitude": 4.4369886
  },
  {
    "name": "Museum Flehite",
    "thumbnail": "https://cdn.museum.nl/assets/e50e7d14-6d10-41ea-a305-3928f9dac094?w=420&h=280&c=d7e14e1c6751a9c023d94a304e8521d22e5854ce67a3aa1114332a5fbb34135b",
    "link": "https://www.museum.nl/nl/museum-flehite",
    "location": "Westsingel 50 3811 BC Amersfoort",
    "latitude": 52.1577161,
    "longitude": 5.3865472
  },
  {
    "name": "Museum Fort Pannerden",
    "thumbnail": "https://cdn.museum.nl/assets/93b07e9f-0e17-4117-be2d-8dcddaf0ef87?w=420&h=280&c=d6770cb2378ccc1d27a7fcf1b1940e85603a26d88dff580e1f3636e83d98bd80",
    "link": "https://www.museum.nl/nl/museum-fort-pannerden",
    "location": "Waaldijk 1 6686 MV Doornenburg",
    "latitude": 51.8809937,
    "longitude": 6.0268389
  },
  {
    "name": "Museum Giethoorn 't Olde Maat Uus",
    "thumbnail": "https://cdn.museum.nl/assets/6ec486a5-310c-41ad-be0e-0151a2e9771f?w=420&h=280&c=211c6198561356bf095656a3d3f3fe1f0c9e05503e79e4391ee31bd3926663ac",
    "link": "https://www.museum.nl/nl/museum-giethoorn-t-olde-maat-uus",
    "location": "Binnenpad 52 8355 BT Giethoorn",
    "latitude": 52.722224,
    "longitude": 6.0898336
  },
  {
    "name": "Museum Goemanszorg",
    "thumbnail": "https://cdn.museum.nl/assets/ea0cc737-67a1-4cc4-b42b-cebe18c35b70?w=420&h=280&c=3e9e2147099e1d26dc19757e42830a3292f202868ff6b2ce635e426351064f78",
    "link": "https://www.museum.nl/nl/museum-goemanszorg",
    "location": "Molenweg 3 4315 CE Dreischor",
    "latitude": 51.6896603,
    "longitude": 3.9860922
  },
  {
    "name": "Museum Gouda",
    "thumbnail": "https://cdn.museum.nl/assets/63adb0f2-c34c-46d6-91a4-a7507f6826fa?w=420&h=280&c=5fc02c50610cabcd7343daf6ccf48f5d79f8f600db7de2ef9ba5de680fb1c91a",
    "link": "https://www.museum.nl/nl/museum-gouda",
    "location": "Oosthaven 9 2801 PB Gouda",
    "latitude": 52.0100269,
    "longitude": 4.7110665
  },
  {
    "name": "Museum Havezate Mensinge",
    "thumbnail": "https://cdn.museum.nl/assets/f9025dfd-21cf-4907-8a34-827126587cb5?w=420&h=280&c=53f763b52da1a71e694fea93942d0dd86b44d97d3b25072b8905a300d96deb81",
    "link": "https://www.museum.nl/nl/museum-havezate-mensinge",
    "location": "Mensingheweg 7 9301 KA Roden",
    "latitude": 53.13424,
    "longitude": 6.4357593
  },
  {
    "name": "Museum Heerenveen",
    "thumbnail": "https://cdn.museum.nl/assets/fd365183-3467-4dfa-aa06-265cf20d67ca?w=420&h=280&c=8dc183a426d53cd1f8f986772565a8180b6db9bac2c6f80d54fe67b8245f2679",
    "link": "https://www.museum.nl/nl/museum-heerenveen",
    "location": "Minckelersstraat 11 8442 CE Heerenveen",
    "latitude": 52.9599609,
    "longitude": 5.9258696
  },
  {
    "name": "Museum Helmantel",
    "thumbnail": "https://cdn.museum.nl/assets/e94fac30-44a1-45dd-9a07-7cba359c50d1?w=420&h=280&c=1b284aa633b5f90b31e9e7e345d283d3ea298eb2860eddb0b93c28f63de28899",
    "link": "https://www.museum.nl/nl/museum-helmantel",
    "location": "Abt Emopad 2 9922 PJ Westeremden",
    "latitude": 53.3441379,
    "longitude": 6.7113256
  },
  {
    "name": "Museum Helmond",
    "thumbnail": "https://cdn.museum.nl/assets/8ee8fd9a-e390-4e39-a982-59fd14269a79?w=420&h=280&c=34f90bb46d356691360489fac1d8355e4b6af57a238acc14e6f5483abddd2f98",
    "link": "https://www.museum.nl/nl/museum-helmond",
    "location": "Kasteelplein 1 5701 PP Helmond",
    "latitude": 51.4770701,
    "longitude": 5.6529579
  },
  {
    "name": "Museum Hengelo",
    "thumbnail": "https://cdn.museum.nl/assets/9425829d-6667-49ad-86c0-55176c343929?w=420&h=280&c=88b1c8e249f9cb591dfbf04f06d01c9a311f726b8bc5bcda7fa9f4caa3a23897",
    "link": "https://www.museum.nl/nl/museum-hengelo",
    "location": "Beekstraat 51 7551 DP Hengelo",
    "latitude": 52.26417,
    "longitude": 6.791883
  },
  {
    "name": "Museum Henriette Polak",
    "thumbnail": "https://cdn.museum.nl/assets/cff89a29-cf22-456e-bfe0-d9067fd74766?w=420&h=280&c=882415a6d61c72a7f0306f55e741fc83afb023f7be4ab5994713ad3c6e030c26",
    "link": "https://www.museum.nl/nl/museum-henriette-polak",
    "location": "s Gravenhof 4 7201 DN Zutphen",
    "latitude": 52.1398656,
    "longitude": 6.1945127
  },
  {
    "name": "Museum Het Belfort",
    "thumbnail": "https://cdn.museum.nl/assets/5d106dbc-5091-45f7-bd2a-cddb2886a96c?w=420&h=280&c=851e32ac06baf61ac189aac0dd3868a819f5c3bf250e5413b525906dd4b88554",
    "link": "https://www.museum.nl/nl/museum-het-belfort",
    "location": "Groote Markt 1 4524 CD Sluis",
    "latitude": 51.3088499,
    "longitude": 3.3862005
  },
  {
    "name": "Museum Het Bolwerk",
    "thumbnail": "https://cdn.museum.nl/assets/7a20de3c-c258-40f0-bcd4-bab117d41e0c?w=420&h=280&c=330cf3a0e419917452a218eb1dfab940405280624fb6b7b498f5881531cf7b25",
    "link": "https://www.museum.nl/nl/museum-het-bolwerk",
    "location": "Markt 28 4515 BB Ijzendijke",
    "latitude": 51.3224863,
    "longitude": 3.6158119
  },
  {
    "name": "Museum Het Pakhuis",
    "thumbnail": "https://cdn.museum.nl/assets/5fe35546-0616-4399-bfa0-38bb0b3d26d7?w=420&h=280&c=847dcf975f165f916889aa75136dcc3e286db5e6b74504ed1dabb33cb6a91595",
    "link": "https://www.museum.nl/nl/museum-het-pakhuis",
    "location": "Molenaarsplein 24 3851 MZ Ermelo",
    "latitude": 52.3012281,
    "longitude": 5.6290759
  },
  {
    "name": "Museum Het Schip",
    "thumbnail": "https://cdn.museum.nl/assets/4b3acc03-f6d3-4115-aa3b-ca01846e0889?w=420&h=280&c=8575ca5b2f99d9c5388bdd0ae7ac9da109465447a6dec76c46a108694cc58d0c",
    "link": "https://www.museum.nl/nl/museum-het-schip",
    "location": "Oostzaanstraat 45 1013 WG Amsterdam",
    "latitude": 52.3904885,
    "longitude": 4.8737264
  },
  {
    "name": "Museum Het Spinozahuis",
    "thumbnail": "https://cdn.museum.nl/assets/8b3b1292-28ba-497d-8536-dad1b26a4bc8?w=420&h=280&c=203ec88b82a8dde76aad37483d2c0b56a4793e27a3a2ced0186aa0dcc471c87d",
    "link": "https://www.museum.nl/nl/museum-het-spinozahuis",
    "location": "Spinozalaan 29 2231 SG Rijnsburg",
    "latitude": 52.191451,
    "longitude": 4.4371263
  },